{
    "89564": {
        "lat": -67.6017,
        "lon": 62.8753,
        "product": "IDT60803",
        "site_name": "MAWSON",
        "state": "ANT",
        "wmo": 89564
    },
    "89570": {
        "lat": -68.4723,
        "lon": 78.8735,
        "product": "IDT60803",
        "site_name": "DAVIS (WHOOP WHOOP)",
        "state": "ANT",
        "wmo": 89570
    },
    "89571": {
        "lat": -68.5744,
        "lon": 77.9672,
        "product": "IDT60803",
        "site_name": "DAVIS",
        "state": "ANT",
        "wmo": 89571
    },
    "89611": {
        "lat": -66.2825,
        "lon": 110.5231,
        "product": "IDT60803",
        "site_name": "CASEY",
        "state": "ANT",
        "wmo": 89611
    },
    "89615": {
        "lat": -66.6831,
        "lon": 111.5317,
        "product": "IDT60803",
        "site_name": "WILKINS RUNWAY EAST",
        "state": "ANT",
        "wmo": 89615
    },
    "89767": {
        "lat": -70.8919,
        "lon": 69.8725,
        "product": "IDT60803",
        "site_name": "G3",
        "state": "ANT",
        "wmo": 89767
    },
    "89807": {
        "lat": -66.55,
        "lon": 107.75,
        "product": "IDT60803",
        "site_name": "SNYDER ROCKS",
        "state": "ANT",
        "wmo": 89807
    },
    "89809": {
        "lat": -66.2803,
        "lon": 110.7615,
        "product": "IDT60803",
        "site_name": "CASEY SKIWAY SOUTH",
        "state": "ANT",
        "wmo": 89809
    },
    "89811": {
        "lat": -66.7296,
        "lon": 112.8348,
        "product": "IDT60803",
        "site_name": "LAW DOME SUMMIT",
        "state": "ANT",
        "wmo": 89811
    },
    "89815": {
        "lat": -66.5819,
        "lon": 110.6939,
        "product": "IDT60803",
        "site_name": "HAUPT NUNATAK",
        "state": "ANT",
        "wmo": 89815
    },
    "89817": {
        "lat": -66.251,
        "lon": 100.6,
        "product": "IDT60803",
        "site_name": "BUNGER HILLS",
        "state": "ANT",
        "wmo": 89817
    },
    "94100": {
        "lat": -14.2964,
        "lon": 126.6453,
        "product": "IDW60801",
        "site_name": "KALUMBURU",
        "state": "WA",
        "wmo": 94100
    },
    "94102": {
        "lat": -13.7542,
        "lon": 126.1485,
        "product": "IDW60801",
        "site_name": "TROUGHTON ISLAND",
        "state": "WA",
        "wmo": 94102
    },
    "94103": {
        "lat": -14.1093,
        "lon": 123.5476,
        "product": "IDW60801",
        "site_name": "BROWSE ISLAND",
        "state": "WA",
        "wmo": 94103
    },
    "94105": {
        "lat": -12.6099,
        "lon": 131.0474,
        "product": "IDD60801",
        "site_name": "NOONAMAH AIRSTRIP",
        "state": "NT",
        "wmo": 94105
    },
    "94106": {
        "lat": -14.7236,
        "lon": 134.7456,
        "product": "IDD60801",
        "site_name": "NGUKURR AIRPORT",
        "state": "NT",
        "wmo": 94106
    },
    "94108": {
        "lat": -11.1629,
        "lon": 132.4813,
        "product": "IDD60801",
        "site_name": "CROKER ISLAND AIRPORT",
        "state": "NT",
        "wmo": 94108
    },
    "94109": {
        "lat": -11.5485,
        "lon": 132.9266,
        "product": "IDD60801",
        "site_name": "MURGANELLA AIRSTRIP",
        "state": "NT",
        "wmo": 94109
    },
    "94112": {
        "lat": -13.0889,
        "lon": 131.8478,
        "product": "IDD60801",
        "site_name": "MOUNT BUNDEY SOUTH (DEFENCE)",
        "state": "NT",
        "wmo": 94112
    },
    "94116": {
        "lat": -12.635,
        "lon": 130.3725,
        "product": "IDD60801",
        "site_name": "DUM IN MIRRIE AIRSTRIP",
        "state": "NT",
        "wmo": 94116
    },
    "94119": {
        "lat": -11.4021,
        "lon": 130.4217,
        "product": "IDD60801",
        "site_name": "PIRLANGIMPI AIRPORT",
        "state": "NT",
        "wmo": 94119
    },
    "94120": {
        "lat": -12.4239,
        "lon": 130.8925,
        "product": "IDD60801",
        "site_name": "DARWIN AIRPORT",
        "state": "NT",
        "wmo": 94120
    },
    "94121": {
        "lat": -13.1672,
        "lon": 130.1226,
        "product": "IDD60801",
        "site_name": "CHANNEL POINT",
        "state": "NT",
        "wmo": 94121
    },
    "94122": {
        "lat": -11.7628,
        "lon": 130.03,
        "product": "IDD60801",
        "site_name": "POINT FAWCETT",
        "state": "NT",
        "wmo": 94122
    },
    "94125": {
        "lat": -13.0544,
        "lon": 131.0252,
        "product": "IDD60801",
        "site_name": "BATCHELOR AIRPORT",
        "state": "NT",
        "wmo": 94125
    },
    "94127": {
        "lat": -12.2397,
        "lon": 131.8791,
        "product": "IDD60801",
        "site_name": "POINT STUART",
        "state": "NT",
        "wmo": 94127
    },
    "94128": {
        "lat": -13.8345,
        "lon": 131.1872,
        "product": "IDD60801",
        "site_name": "DOUGLAS RIVER RESEARCH FARM",
        "state": "NT",
        "wmo": 94128
    },
    "94130": {
        "lat": -14.9408,
        "lon": 130.8091,
        "product": "IDD60801",
        "site_name": "BRADSHAW",
        "state": "NT",
        "wmo": 94130
    },
    "94131": {
        "lat": -14.5229,
        "lon": 132.3826,
        "product": "IDD60801",
        "site_name": "TINDAL RAAF",
        "state": "NT",
        "wmo": 94131
    },
    "94132": {
        "lat": -14.4728,
        "lon": 132.2612,
        "product": "IDD60801",
        "site_name": "KATHERINE COUNTRY CLUB",
        "state": "NT",
        "wmo": 94132
    },
    "94134": {
        "lat": -11.1538,
        "lon": 132.143,
        "product": "IDD60801",
        "site_name": "BLACK POINT",
        "state": "NT",
        "wmo": 94134
    },
    "94135": {
        "lat": -11.0468,
        "lon": 132.9791,
        "product": "IDD60801",
        "site_name": "MCCLUER ISLAND",
        "state": "NT",
        "wmo": 94135
    },
    "94137": {
        "lat": -12.6592,
        "lon": 132.894,
        "product": "IDD60801",
        "site_name": "JABIRU AIRPORT",
        "state": "NT",
        "wmo": 94137
    },
    "94139": {
        "lat": -11.65,
        "lon": 133.3797,
        "product": "IDD60801",
        "site_name": "WARRUWI AIRPORT",
        "state": "NT",
        "wmo": 94139
    },
    "94140": {
        "lat": -12.0932,
        "lon": 134.8919,
        "product": "IDD60801",
        "site_name": "MILINGIMBI AIRPORT",
        "state": "NT",
        "wmo": 94140
    },
    "94141": {
        "lat": -13.3275,
        "lon": 133.0861,
        "product": "IDD60801",
        "site_name": "CENTRAL ARNHEM PLATEAU",
        "state": "NT",
        "wmo": 94141
    },
    "94143": {
        "lat": -13.6715,
        "lon": 134.3415,
        "product": "IDD60801",
        "site_name": "BULMAN",
        "state": "NT",
        "wmo": 94143
    },
    "94147": {
        "lat": -11.0047,
        "lon": 136.7586,
        "product": "IDD60801",
        "site_name": "CAPE WESSEL",
        "state": "NT",
        "wmo": 94147
    },
    "94150": {
        "lat": -12.2741,
        "lon": 136.8201,
        "product": "IDD60801",
        "site_name": "GOVE AIRPORT",
        "state": "NT",
        "wmo": 94150
    },
    "94152": {
        "lat": -16.0755,
        "lon": 136.3041,
        "product": "IDD60801",
        "site_name": "BORROLOOLA AIRPORT",
        "state": "NT",
        "wmo": 94152
    },
    "94153": {
        "lat": -13.9746,
        "lon": 136.463,
        "product": "IDD60801",
        "site_name": "GROOTE EYLANDT AIRPORT",
        "state": "NT",
        "wmo": 94153
    },
    "94162": {
        "lat": -12.9114,
        "lon": 131.8663,
        "product": "IDD60801",
        "site_name": "MOUNT BUNDEY NORTH (DEFENCE)",
        "state": "NT",
        "wmo": 94162
    },
    "94170": {
        "lat": -12.6778,
        "lon": 141.9208,
        "product": "IDQ60801",
        "site_name": "WEIPA AERO",
        "state": "QLD",
        "wmo": 94170
    },
    "94171": {
        "lat": -12.6167,
        "lon": 142.0869,
        "product": "IDQ60801",
        "site_name": "SCHERGER RAAF",
        "state": "QLD",
        "wmo": 94171
    },
    "94174": {
        "lat": -10.5844,
        "lon": 142.29,
        "product": "IDQ60801",
        "site_name": "HORN ISLAND",
        "state": "QLD",
        "wmo": 94174
    },
    "94182": {
        "lat": -10.0511,
        "lon": 143.0686,
        "product": "IDQ60801",
        "site_name": "COCONUT ISLAND",
        "state": "QLD",
        "wmo": 94182
    },
    "94183": {
        "lat": -13.7606,
        "lon": 143.1183,
        "product": "IDQ60801",
        "site_name": "COEN AIRPORT",
        "state": "QLD",
        "wmo": 94183
    },
    "94186": {
        "lat": -12.785,
        "lon": 143.3047,
        "product": "IDQ60801",
        "site_name": "LOCKHART RIVER AIRPORT",
        "state": "QLD",
        "wmo": 94186
    },
    "94188": {
        "lat": -14.9672,
        "lon": 145.3106,
        "product": "IDQ60801",
        "site_name": "CAPE FLATTERY",
        "state": "QLD",
        "wmo": 94188
    },
    "94200": {
        "lat": -19.7419,
        "lon": 120.8433,
        "product": "IDW60801",
        "site_name": "MANDORA",
        "state": "WA",
        "wmo": 94200
    },
    "94201": {
        "lat": -16.4513,
        "lon": 123.0087,
        "product": "IDW60801",
        "site_name": "CYGNET BAY",
        "state": "WA",
        "wmo": 94201
    },
    "94202": {
        "lat": -18.6844,
        "lon": 121.7803,
        "product": "IDW60801",
        "site_name": "BIDYADANGA",
        "state": "WA",
        "wmo": 94202
    },
    "94203": {
        "lat": -17.9475,
        "lon": 122.2352,
        "product": "IDW60801",
        "site_name": "BROOME AIRPORT",
        "state": "WA",
        "wmo": 94203
    },
    "94204": {
        "lat": -17.5768,
        "lon": 123.8297,
        "product": "IDW60801",
        "site_name": "CURTIN AERO",
        "state": "WA",
        "wmo": 94204
    },
    "94206": {
        "lat": -18.1814,
        "lon": 125.5619,
        "product": "IDW60801",
        "site_name": "FITZROY CROSSING AERO",
        "state": "WA",
        "wmo": 94206
    },
    "94207": {
        "lat": -17.5217,
        "lon": 118.9531,
        "product": "IDW60801",
        "site_name": "ROWLEY SHOALS",
        "state": "WA",
        "wmo": 94207
    },
    "94210": {
        "lat": -15.5114,
        "lon": 123.1556,
        "product": "IDW60801",
        "site_name": "ADELE ISLAND",
        "state": "WA",
        "wmo": 94210
    },
    "94212": {
        "lat": -18.2337,
        "lon": 127.6666,
        "product": "IDW60801",
        "site_name": "HALLS CREEK AIRPORT",
        "state": "WA",
        "wmo": 94212
    },
    "94213": {
        "lat": -17.0154,
        "lon": 128.2174,
        "product": "IDW60801",
        "site_name": "WARMUN",
        "state": "WA",
        "wmo": 94213
    },
    "94215": {
        "lat": -15.3797,
        "lon": 126.3114,
        "product": "IDW60801",
        "site_name": "DOONGAN",
        "state": "WA",
        "wmo": 94215
    },
    "94216": {
        "lat": -15.7814,
        "lon": 128.71,
        "product": "IDW60801",
        "site_name": "KUNUNURRA AERO",
        "state": "WA",
        "wmo": 94216
    },
    "94217": {
        "lat": -16.638,
        "lon": 128.4516,
        "product": "IDW60801",
        "site_name": "ARGYLE AERODROME",
        "state": "WA",
        "wmo": 94217
    },
    "94221": {
        "lat": -15.4397,
        "lon": 130.5731,
        "product": "IDD60801",
        "site_name": "BRADSHAW - ANGALLARI VALLEY (DEFENCE)",
        "state": "NT",
        "wmo": 94221
    },
    "94222": {
        "lat": -15.1853,
        "lon": 130.1169,
        "product": "IDD60801",
        "site_name": "BRADSHAW - KOOLENDONG VALLEY (DEFENCE)",
        "state": "NT",
        "wmo": 94222
    },
    "94225": {
        "lat": -15.7441,
        "lon": 131.9181,
        "product": "IDD60801",
        "site_name": "DELAMERE WEAPONS RANGE",
        "state": "NT",
        "wmo": 94225
    },
    "94231": {
        "lat": -18.3324,
        "lon": 130.6361,
        "product": "IDD60801",
        "site_name": "LAJAMANU AIRPORT",
        "state": "NT",
        "wmo": 94231
    },
    "94232": {
        "lat": -16.403,
        "lon": 131.0145,
        "product": "IDD60801",
        "site_name": "VICTORIA RIVER DOWNS",
        "state": "NT",
        "wmo": 94232
    },
    "94234": {
        "lat": -16.2637,
        "lon": 133.3782,
        "product": "IDD60801",
        "site_name": "DALY WATERS AIRSTRIP",
        "state": "NT",
        "wmo": 94234
    },
    "94236": {
        "lat": -17.5552,
        "lon": 133.5439,
        "product": "IDD60801",
        "site_name": "ELLIOTT",
        "state": "NT",
        "wmo": 94236
    },
    "94238": {
        "lat": -19.6423,
        "lon": 134.1833,
        "product": "IDD60801",
        "site_name": "TENNANT CREEK AIRPORT",
        "state": "NT",
        "wmo": 94238
    },
    "94239": {
        "lat": -16.4423,
        "lon": 136.076,
        "product": "IDD60801",
        "site_name": "MCARTHUR RIVER MINE AIRPORT",
        "state": "NT",
        "wmo": 94239
    },
    "94242": {
        "lat": -18.637,
        "lon": 135.945,
        "product": "IDD60801",
        "site_name": "BRUNETTE DOWNS",
        "state": "NT",
        "wmo": 94242
    },
    "94248": {
        "lat": -15.7426,
        "lon": 136.8192,
        "product": "IDD60801",
        "site_name": "CENTRE ISLAND",
        "state": "NT",
        "wmo": 94248
    },
    "94254": {
        "lat": -16.662,
        "lon": 139.1655,
        "product": "IDQ60801",
        "site_name": "MORNINGTON ISLAND AIRPORT",
        "state": "QLD",
        "wmo": 94254
    },
    "94255": {
        "lat": -19.9225,
        "lon": 138.1214,
        "product": "IDQ60801",
        "site_name": "CAMOOWEAL TOWNSHIP",
        "state": "QLD",
        "wmo": 94255
    },
    "94257": {
        "lat": -17.1142,
        "lon": 139.5981,
        "product": "IDQ60801",
        "site_name": "SWEERS ISLAND",
        "state": "QLD",
        "wmo": 94257
    },
    "94260": {
        "lat": -17.7483,
        "lon": 139.5356,
        "product": "IDQ60801",
        "site_name": "BURKETOWN AIRPORT",
        "state": "QLD",
        "wmo": 94260
    },
    "94261": {
        "lat": -18.7569,
        "lon": 138.7056,
        "product": "IDQ60801",
        "site_name": "CENTURY MINE",
        "state": "QLD",
        "wmo": 94261
    },
    "94266": {
        "lat": -17.6872,
        "lon": 141.0733,
        "product": "IDQ60801",
        "site_name": "NORMANTON AIRPORT",
        "state": "QLD",
        "wmo": 94266
    },
    "94268": {
        "lat": -15.4818,
        "lon": 141.7483,
        "product": "IDQ60801",
        "site_name": "KOWANYAMA AIRPORT",
        "state": "QLD",
        "wmo": 94268
    },
    "94271": {
        "lat": -19.3048,
        "lon": 146.2438,
        "product": "IDQ60801",
        "site_name": "TOWNSVILLE- AIR WEAPONS RANGE (DEFENCE)",
        "state": "QLD",
        "wmo": 94271
    },
    "94272": {
        "lat": -19.4082,
        "lon": 146.762,
        "product": "IDQ60801",
        "site_name": "MOUNT STUART (DEFENCE)",
        "state": "QLD",
        "wmo": 94272
    },
    "94273": {
        "lat": -19.783,
        "lon": 146.5,
        "product": "IDQ60801",
        "site_name": "TOWNSVILLE- FANNING RIVER (DEFENCE)",
        "state": "QLD",
        "wmo": 94273
    },
    "94274": {
        "lat": -18.3039,
        "lon": 143.5306,
        "product": "IDQ60801",
        "site_name": "GEORGETOWN AIRPORT",
        "state": "QLD",
        "wmo": 94274
    },
    "94276": {
        "lat": -15.9999,
        "lon": 144.0754,
        "product": "IDQ60801",
        "site_name": "PALMERVILLE",
        "state": "QLD",
        "wmo": 94276
    },
    "94280": {
        "lat": -17.5581,
        "lon": 146.0119,
        "product": "IDQ60801",
        "site_name": "INNISFAIL AERODROME",
        "state": "QLD",
        "wmo": 94280
    },
    "94285": {
        "lat": -16.3842,
        "lon": 145.5592,
        "product": "IDQ60801",
        "site_name": "LOW ISLES LIGHTHOUSE",
        "state": "QLD",
        "wmo": 94285
    },
    "94287": {
        "lat": -16.8736,
        "lon": 145.7458,
        "product": "IDQ60801",
        "site_name": "CAIRNS AERO",
        "state": "QLD",
        "wmo": 94287
    },
    "94288": {
        "lat": -16.9463,
        "lon": 145.7474,
        "product": "IDQ60801",
        "site_name": "CAIRNS RACECOURSE",
        "state": "QLD",
        "wmo": 94288
    },
    "94289": {
        "lat": -16.4683,
        "lon": 147.8734,
        "product": "IDQ60801",
        "site_name": "HOLMES REEF",
        "state": "QLD",
        "wmo": 94289
    },
    "94290": {
        "lat": -17.7195,
        "lon": 148.4478,
        "product": "IDQ60801",
        "site_name": "FLINDERS REEF",
        "state": "QLD",
        "wmo": 94290
    },
    "94291": {
        "lat": -17.5249,
        "lon": 146.0345,
        "product": "IDQ60801",
        "site_name": "INNISFAIL",
        "state": "QLD",
        "wmo": 94291
    },
    "94292": {
        "lat": -18.2544,
        "lon": 146.0192,
        "product": "IDQ60801",
        "site_name": "CARDWELL MARINE PDE",
        "state": "QLD",
        "wmo": 94292
    },
    "94294": {
        "lat": -19.2483,
        "lon": 146.7661,
        "product": "IDQ60801",
        "site_name": "TOWNSVILLE AERO",
        "state": "QLD",
        "wmo": 94294
    },
    "94295": {
        "lat": -18.5203,
        "lon": 146.3861,
        "product": "IDQ60801",
        "site_name": "LUCINDA POINT",
        "state": "QLD",
        "wmo": 94295
    },
    "94297": {
        "lat": -19.2774,
        "lon": 147.0586,
        "product": "IDQ60801",
        "site_name": "CAPE FERGUSON NTC AWS",
        "state": "QLD",
        "wmo": 94297
    },
    "94298": {
        "lat": -19.0964,
        "lon": 152.3892,
        "product": "IDQ60801",
        "site_name": "MARION REEF",
        "state": "QLD",
        "wmo": 94298
    },
    "94299": {
        "lat": -16.2878,
        "lon": 149.9652,
        "product": "IDQ60801",
        "site_name": "WILLIS ISLAND",
        "state": "QLD",
        "wmo": 94299
    },
    "94300": {
        "lat": -24.8878,
        "lon": 113.67,
        "product": "IDW60801",
        "site_name": "CARNARVON AIRPORT",
        "state": "WA",
        "wmo": 94300
    },
    "94302": {
        "lat": -22.2406,
        "lon": 114.0967,
        "product": "IDW60801",
        "site_name": "LEARMONTH AIRPORT",
        "state": "WA",
        "wmo": 94302
    },
    "94303": {
        "lat": -21.4609,
        "lon": 115.0188,
        "product": "IDW60801",
        "site_name": "THEVENARD ISLAND",
        "state": "WA",
        "wmo": 94303
    },
    "94306": {
        "lat": -21.1906,
        "lon": 115.9797,
        "product": "IDW60801",
        "site_name": "MARDIE",
        "state": "WA",
        "wmo": 94306
    },
    "94307": {
        "lat": -20.3583,
        "lon": 116.8431,
        "product": "IDW60801",
        "site_name": "LEGENDRE ISLAND",
        "state": "WA",
        "wmo": 94307
    },
    "94308": {
        "lat": -20.7594,
        "lon": 117.1583,
        "product": "IDW60801",
        "site_name": "ROEBOURNE AERO",
        "state": "WA",
        "wmo": 94308
    },
    "94310": {
        "lat": -19.5894,
        "lon": 119.1,
        "product": "IDW60801",
        "site_name": "BEDOUT ISLAND",
        "state": "WA",
        "wmo": 94310
    },
    "94311": {
        "lat": -20.1078,
        "lon": 119.5811,
        "product": "IDW60801",
        "site_name": "PARDOO STATION",
        "state": "WA",
        "wmo": 94311
    },
    "94312": {
        "lat": -20.3725,
        "lon": 118.6317,
        "product": "IDW60801",
        "site_name": "PORT HEDLAND AIRPORT",
        "state": "WA",
        "wmo": 94312
    },
    "94316": {
        "lat": -23.1726,
        "lon": 117.7493,
        "product": "IDW60801",
        "site_name": "PARABURDOO AERO",
        "state": "WA",
        "wmo": 94316
    },
    "94317": {
        "lat": -23.4167,
        "lon": 119.7992,
        "product": "IDW60801",
        "site_name": "NEWMAN AERO",
        "state": "WA",
        "wmo": 94317
    },
    "94319": {
        "lat": -21.7125,
        "lon": 122.2281,
        "product": "IDW60801",
        "site_name": "TELFER AERO",
        "state": "WA",
        "wmo": 94319
    },
    "94321": {
        "lat": -23.2656,
        "lon": 129.3844,
        "product": "IDD60801",
        "site_name": "WALUNGURRU AIRPORT",
        "state": "NT",
        "wmo": 94321
    },
    "94323": {
        "lat": -24.2918,
        "lon": 131.549,
        "product": "IDD60801",
        "site_name": "WATARRKA",
        "state": "NT",
        "wmo": 94323
    },
    "94324": {
        "lat": -22.2565,
        "lon": 131.8011,
        "product": "IDD60801",
        "site_name": "YUENDUMU",
        "state": "NT",
        "wmo": 94324
    },
    "94326": {
        "lat": -23.7951,
        "lon": 133.889,
        "product": "IDD60801",
        "site_name": "ALICE SPRINGS AIRPORT",
        "state": "NT",
        "wmo": 94326
    },
    "94327": {
        "lat": -22.9494,
        "lon": 136.1442,
        "product": "IDD60801",
        "site_name": "JERVOIS",
        "state": "NT",
        "wmo": 94327
    },
    "94328": {
        "lat": -22.4518,
        "lon": 133.6377,
        "product": "IDD60801",
        "site_name": "TERRITORY GRAPE FARM",
        "state": "NT",
        "wmo": 94328
    },
    "94330": {
        "lat": -22.2999,
        "lon": 118.4498,
        "product": "IDW60801",
        "site_name": "KARIJINI NORTH",
        "state": "WA",
        "wmo": 94330
    },
    "94332": {
        "lat": -20.6778,
        "lon": 139.4875,
        "product": "IDQ60801",
        "site_name": "MOUNT ISA AERO",
        "state": "QLD",
        "wmo": 94332
    },
    "94334": {
        "lat": -24.3597,
        "lon": 139.4714,
        "product": "IDQ60801",
        "site_name": "BEDOURIE",
        "state": "QLD",
        "wmo": 94334
    },
    "94335": {
        "lat": -20.6664,
        "lon": 140.505,
        "product": "IDQ60801",
        "site_name": "CLONCURRY AIRPORT",
        "state": "QLD",
        "wmo": 94335
    },
    "94336": {
        "lat": -21.8125,
        "lon": 139.9267,
        "product": "IDQ60801",
        "site_name": "THE MONUMENT AIRPORT",
        "state": "QLD",
        "wmo": 94336
    },
    "94337": {
        "lat": -20.6672,
        "lon": 141.7214,
        "product": "IDQ60801",
        "site_name": "JULIA CREEK AIRPORT",
        "state": "QLD",
        "wmo": 94337
    },
    "94338": {
        "lat": -21.84,
        "lon": 140.8925,
        "product": "IDQ60801",
        "site_name": "TREPELL AIRPORT",
        "state": "QLD",
        "wmo": 94338
    },
    "94341": {
        "lat": -20.7017,
        "lon": 143.1167,
        "product": "IDQ60801",
        "site_name": "RICHMOND AIRPORT",
        "state": "QLD",
        "wmo": 94341
    },
    "94342": {
        "lat": -22.3617,
        "lon": 143.0836,
        "product": "IDQ60801",
        "site_name": "WINTON AIRPORT",
        "state": "QLD",
        "wmo": 94342
    },
    "94343": {
        "lat": -20.8192,
        "lon": 144.2333,
        "product": "IDQ60801",
        "site_name": "HUGHENDEN AIRPORT",
        "state": "QLD",
        "wmo": 94343
    },
    "94344": {
        "lat": -21.5979,
        "lon": 138.3665,
        "product": "IDQ60801",
        "site_name": "URANDANGI AERODROME",
        "state": "QLD",
        "wmo": 94344
    },
    "94345": {
        "lat": -24.2591,
        "lon": 144.4406,
        "product": "IDQ60801",
        "site_name": "ISISFORD POST OFFICE",
        "state": "QLD",
        "wmo": 94345
    },
    "94346": {
        "lat": -23.4397,
        "lon": 144.2828,
        "product": "IDQ60801",
        "site_name": "LONGREACH AERO",
        "state": "QLD",
        "wmo": 94346
    },
    "94347": {
        "lat": -20.9358,
        "lon": 139.2964,
        "product": "IDQ60801",
        "site_name": "CARTERS BORE",
        "state": "QLD",
        "wmo": 94347
    },
    "94348": {
        "lat": -20.1167,
        "lon": 139.7256,
        "product": "IDQ60801",
        "site_name": "LAKE JULIUS AWS",
        "state": "QLD",
        "wmo": 94348
    },
    "94349": {
        "lat": -20.59,
        "lon": 139.3411,
        "product": "IDQ60801",
        "site_name": "NEW MAY DOWNS",
        "state": "QLD",
        "wmo": 94349
    },
    "94350": {
        "lat": -23.5544,
        "lon": 145.2883,
        "product": "IDQ60801",
        "site_name": "BARCALDINE POST OFFICE",
        "state": "QLD",
        "wmo": 94350
    },
    "94352": {
        "lat": -21.17,
        "lon": 149.1515,
        "product": "IDQ60801",
        "site_name": "OORALEA RACECOURSE (MACKAY TURF CLUB)",
        "state": "QLD",
        "wmo": 94352
    },
    "94355": {
        "lat": -24.8819,
        "lon": 146.2564,
        "product": "IDQ60801",
        "site_name": "TAMBO POST OFFICE",
        "state": "QLD",
        "wmo": 94355
    },
    "94356": {
        "lat": -20.0464,
        "lon": 146.2708,
        "product": "IDQ60801",
        "site_name": "CHARTERS TOWERS AIRPORT",
        "state": "QLD",
        "wmo": 94356
    },
    "94360": {
        "lat": -20.5533,
        "lon": 147.8464,
        "product": "IDQ60801",
        "site_name": "COLLINSVILLE POST OFFICE",
        "state": "QLD",
        "wmo": 94360
    },
    "94363": {
        "lat": -23.5694,
        "lon": 148.1756,
        "product": "IDQ60801",
        "site_name": "EMERALD AIRPORT",
        "state": "QLD",
        "wmo": 94363
    },
    "94365": {
        "lat": -20.4925,
        "lon": 148.555,
        "product": "IDQ60801",
        "site_name": "PROSERPINE AIRPORT",
        "state": "QLD",
        "wmo": 94365
    },
    "94367": {
        "lat": -21.1172,
        "lon": 149.2169,
        "product": "IDQ60801",
        "site_name": "MACKAY M.O",
        "state": "QLD",
        "wmo": 94367
    },
    "94368": {
        "lat": -20.3658,
        "lon": 148.9536,
        "product": "IDQ60801",
        "site_name": "HAMILTON ISLAND AIRPORT",
        "state": "QLD",
        "wmo": 94368
    },
    "94370": {
        "lat": -22.7433,
        "lon": 150.6578,
        "product": "IDQ60801",
        "site_name": "SAMUEL HILL AERO",
        "state": "QLD",
        "wmo": 94370
    },
    "94371": {
        "lat": -20.5303,
        "lon": 150.3773,
        "product": "IDQ60801",
        "site_name": "CREAL REEF",
        "state": "QLD",
        "wmo": 94371
    },
    "94372": {
        "lat": -21.6628,
        "lon": 150.2711,
        "product": "IDQ60801",
        "site_name": "MIDDLE PERCY ISLAND",
        "state": "QLD",
        "wmo": 94372
    },
    "94373": {
        "lat": -23.1364,
        "lon": 150.7506,
        "product": "IDQ60801",
        "site_name": "YEPPOON THE ESPLANADE",
        "state": "QLD",
        "wmo": 94373
    },
    "94374": {
        "lat": -23.3753,
        "lon": 150.4775,
        "product": "IDQ60801",
        "site_name": "ROCKHAMPTON AERO",
        "state": "QLD",
        "wmo": 94374
    },
    "94376": {
        "lat": -24.4935,
        "lon": 150.5709,
        "product": "IDQ60801",
        "site_name": "THANGOOL AIRPORT",
        "state": "QLD",
        "wmo": 94376
    },
    "94377": {
        "lat": -24.8642,
        "lon": 151.1247,
        "product": "IDQ60801",
        "site_name": "MONTO TOWNSHIP",
        "state": "QLD",
        "wmo": 94377
    },
    "94378": {
        "lat": -23.5322,
        "lon": 151.2771,
        "product": "IDQ60801",
        "site_name": "RUNDLE ISLAND",
        "state": "QLD",
        "wmo": 94378
    },
    "94379": {
        "lat": -21.9769,
        "lon": 152.4707,
        "product": "IDQ60801",
        "site_name": "GANNET CAY",
        "state": "QLD",
        "wmo": 94379
    },
    "94380": {
        "lat": -23.8553,
        "lon": 151.2628,
        "product": "IDQ60801",
        "site_name": "GLADSTONE RADAR",
        "state": "QLD",
        "wmo": 94380
    },
    "94381": {
        "lat": -23.8697,
        "lon": 151.2214,
        "product": "IDQ60801",
        "site_name": "GLADSTONE AIRPORT",
        "state": "QLD",
        "wmo": 94381
    },
    "94383": {
        "lat": -20.0154,
        "lon": 148.2138,
        "product": "IDQ60801",
        "site_name": "BOWEN AIRPORT AWS",
        "state": "QLD",
        "wmo": 94383
    },
    "94384": {
        "lat": -24.1568,
        "lon": 151.8889,
        "product": "IDQ60801",
        "site_name": "SEVENTEEN SEVENTY",
        "state": "QLD",
        "wmo": 94384
    },
    "94386": {
        "lat": -23.4417,
        "lon": 151.9125,
        "product": "IDQ60801",
        "site_name": "HERON ISLAND RES STN",
        "state": "QLD",
        "wmo": 94386
    },
    "94387": {
        "lat": -24.9069,
        "lon": 152.323,
        "product": "IDQ60801",
        "site_name": "BUNDABERG AERO",
        "state": "QLD",
        "wmo": 94387
    },
    "94388": {
        "lat": -24.1116,
        "lon": 152.7161,
        "product": "IDQ60801",
        "site_name": "LADY ELLIOT ISLAND",
        "state": "QLD",
        "wmo": 94388
    },
    "94390": {
        "lat": -24.7297,
        "lon": 153.2083,
        "product": "IDQ60801",
        "site_name": "SANDY CAPE LIGHTHOUSE",
        "state": "QLD",
        "wmo": 94390
    },
    "94394": {
        "lat": -23.2503,
        "lon": 155.542,
        "product": "IDQ60801",
        "site_name": "CATO ISLAND",
        "state": "QLD",
        "wmo": 94394
    },
    "94395": {
        "lat": -22.7756,
        "lon": 147.6217,
        "product": "IDQ60801",
        "site_name": "CLERMONT AIRPORT",
        "state": "QLD",
        "wmo": 94395
    },
    "94397": {
        "lat": -22.0644,
        "lon": 148.0758,
        "product": "IDQ60801",
        "site_name": "MORANBAH AIRPORT",
        "state": "QLD",
        "wmo": 94397
    },
    "94398": {
        "lat": -23.6015,
        "lon": 148.8074,
        "product": "IDQ60801",
        "site_name": "BLACKWATER AIRPORT",
        "state": "QLD",
        "wmo": 94398
    },
    "94399": {
        "lat": -23.9424,
        "lon": 147.525,
        "product": "IDQ60801",
        "site_name": "LOCHINGTON",
        "state": "QLD",
        "wmo": 94399
    },
    "94401": {
        "lat": -27.7119,
        "lon": 114.165,
        "product": "IDW60801",
        "site_name": "KALBARRI",
        "state": "WA",
        "wmo": 94401
    },
    "94402": {
        "lat": -25.9265,
        "lon": 113.5325,
        "product": "IDW60801",
        "site_name": "DENHAM",
        "state": "WA",
        "wmo": 94402
    },
    "94403": {
        "lat": -28.8047,
        "lon": 114.6989,
        "product": "IDW60801",
        "site_name": "GERALDTON AIRPORT",
        "state": "WA",
        "wmo": 94403
    },
    "94404": {
        "lat": -29.2708,
        "lon": 117.6836,
        "product": "IDW60801",
        "site_name": "PAYNES FIND",
        "state": "WA",
        "wmo": 94404
    },
    "94405": {
        "lat": -28.3008,
        "lon": 113.5936,
        "product": "IDW60801",
        "site_name": "NORTH ISLAND",
        "state": "WA",
        "wmo": 94405
    },
    "94407": {
        "lat": -29.7614,
        "lon": 143.1135,
        "product": "IDN60801",
        "site_name": "WANAARING (BORRONA DOWNS AWS)",
        "state": "NSW",
        "wmo": 94407
    },
    "94411": {
        "lat": -28.5367,
        "lon": 115.5142,
        "product": "IDW60801",
        "site_name": "MULLEWA",
        "state": "WA",
        "wmo": 94411
    },
    "94415": {
        "lat": -29.6886,
        "lon": 115.8872,
        "product": "IDW60801",
        "site_name": "CARNAMAH",
        "state": "WA",
        "wmo": 94415
    },
    "94417": {
        "lat": -29.2039,
        "lon": 116.0247,
        "product": "IDW60801",
        "site_name": "MORAWA AIRPORT",
        "state": "WA",
        "wmo": 94417
    },
    "94418": {
        "lat": -28.0437,
        "lon": 153.1871,
        "product": "IDQ60801",
        "site_name": "CANUNGRA (DEFENCE)",
        "state": "QLD",
        "wmo": 94418
    },
    "94419": {
        "lat": -27.6932,
        "lon": 152.9935,
        "product": "IDQ60801",
        "site_name": "GREENBANK (DEFENCE)",
        "state": "QLD",
        "wmo": 94419
    },
    "94420": {
        "lat": -25.9351,
        "lon": 152.9647,
        "product": "IDQ60801",
        "site_name": "TIN CAN BAY (DEFENCE)",
        "state": "QLD",
        "wmo": 94420
    },
    "94422": {
        "lat": -26.8956,
        "lon": 115.9567,
        "product": "IDW60801",
        "site_name": "MURCHISON",
        "state": "WA",
        "wmo": 94422
    },
    "94429": {
        "lat": -28.1156,
        "lon": 117.8425,
        "product": "IDW60801",
        "site_name": "MOUNT MAGNET AERO",
        "state": "WA",
        "wmo": 94429
    },
    "94430": {
        "lat": -26.6136,
        "lon": 118.5372,
        "product": "IDW60801",
        "site_name": "MEEKATHARRA AIRPORT",
        "state": "WA",
        "wmo": 94430
    },
    "94439": {
        "lat": -26.5914,
        "lon": 120.2258,
        "product": "IDW60801",
        "site_name": "WILUNA",
        "state": "WA",
        "wmo": 94439
    },
    "94444": {
        "lat": -28.4967,
        "lon": 119.7436,
        "product": "IDW60801",
        "site_name": "BULGA DOWNS",
        "state": "WA",
        "wmo": 94444
    },
    "94449": {
        "lat": -28.6133,
        "lon": 122.4236,
        "product": "IDW60801",
        "site_name": "LAVERTON AERO",
        "state": "WA",
        "wmo": 94449
    },
    "94450": {
        "lat": -28.8789,
        "lon": 121.3186,
        "product": "IDW60801",
        "site_name": "LEONORA AERO",
        "state": "WA",
        "wmo": 94450
    },
    "94451": {
        "lat": -25.7964,
        "lon": 122.9753,
        "product": "IDW60801",
        "site_name": "CARNEGIE",
        "state": "WA",
        "wmo": 94451
    },
    "94457": {
        "lat": -26.1317,
        "lon": 126.5839,
        "product": "IDW60801",
        "site_name": "WARBURTON AIRFIELD",
        "state": "WA",
        "wmo": 94457
    },
    "94461": {
        "lat": -25.0341,
        "lon": 128.301,
        "product": "IDW60801",
        "site_name": "GILES METEOROLOGICAL OFFICE",
        "state": "WA",
        "wmo": 94461
    },
    "94462": {
        "lat": -25.1896,
        "lon": 130.9737,
        "product": "IDD60801",
        "site_name": "YULARA AIRPORT",
        "state": "NT",
        "wmo": 94462
    },
    "94463": {
        "lat": -25.3139,
        "lon": 131.7571,
        "product": "IDD60801",
        "site_name": "CURTIN SPRINGS",
        "state": "NT",
        "wmo": 94463
    },
    "94466": {
        "lat": -25.8428,
        "lon": 133.3027,
        "product": "IDD60801",
        "site_name": "KULGERA",
        "state": "NT",
        "wmo": 94466
    },
    "94474": {
        "lat": -26.2635,
        "lon": 132.1771,
        "product": "IDD60801",
        "site_name": "ERNABELLA (PUKATJA)",
        "state": "SA",
        "wmo": 94474
    },
    "94489": {
        "lat": -25.4117,
        "lon": 142.6647,
        "product": "IDQ60801",
        "site_name": "WINDORAH AIRPORT",
        "state": "QLD",
        "wmo": 94489
    },
    "94497": {
        "lat": -29.7029,
        "lon": 144.1484,
        "product": "IDN60801",
        "site_name": "WANAARING POST OFFICE",
        "state": "NSW",
        "wmo": 94497
    },
    "94498": {
        "lat": -29.431,
        "lon": 147.9722,
        "product": "IDN60801",
        "site_name": "LIGHTNING RIDGE VISITOR INFORMATION CENT",
        "state": "NSW",
        "wmo": 94498
    },
    "94500": {
        "lat": -28.0689,
        "lon": 145.6822,
        "product": "IDQ60801",
        "site_name": "CUNNAMULLA POST OFFICE",
        "state": "QLD",
        "wmo": 94500
    },
    "94510": {
        "lat": -26.4139,
        "lon": 146.2558,
        "product": "IDQ60801",
        "site_name": "CHARLEVILLE AERO",
        "state": "QLD",
        "wmo": 94510
    },
    "94511": {
        "lat": -25.8428,
        "lon": 148.5669,
        "product": "IDQ60801",
        "site_name": "INJUNE POST OFFICE",
        "state": "QLD",
        "wmo": 94511
    },
    "94514": {
        "lat": -26.4888,
        "lon": 147.9777,
        "product": "IDQ60801",
        "site_name": "MITCHELL POST OFFICE",
        "state": "QLD",
        "wmo": 94514
    },
    "94515": {
        "lat": -26.5477,
        "lon": 148.771,
        "product": "IDQ60801",
        "site_name": "ROMA AIRPORT",
        "state": "QLD",
        "wmo": 94515
    },
    "94517": {
        "lat": -28.0489,
        "lon": 148.5942,
        "product": "IDQ60801",
        "site_name": "ST GEORGE AIRPORT",
        "state": "QLD",
        "wmo": 94517
    },
    "94520": {
        "lat": -28.9786,
        "lon": 148.9899,
        "product": "IDN60801",
        "site_name": "MUNGINDI POST OFFICE",
        "state": "NSW",
        "wmo": 94520
    },
    "94521": {
        "lat": -27.1591,
        "lon": 149.0702,
        "product": "IDQ60801",
        "site_name": "SURAT",
        "state": "QLD",
        "wmo": 94521
    },
    "94525": {
        "lat": -25.6408,
        "lon": 149.7958,
        "product": "IDQ60801",
        "site_name": "TAROOM POST OFFICE",
        "state": "QLD",
        "wmo": 94525
    },
    "94541": {
        "lat": -29.7752,
        "lon": 151.082,
        "product": "IDN60801",
        "site_name": "INVERELL RESEARCH CENTRE",
        "state": "NSW",
        "wmo": 94541
    },
    "94542": {
        "lat": -27.1605,
        "lon": 151.2634,
        "product": "IDQ60801",
        "site_name": "DALBY AIRPORT",
        "state": "QLD",
        "wmo": 94542
    },
    "94544": {
        "lat": -29.3899,
        "lon": 151.2448,
        "product": "IDN60801",
        "site_name": "PINDARI DAM",
        "state": "NSW",
        "wmo": 94544
    },
    "94549": {
        "lat": -26.5737,
        "lon": 151.8398,
        "product": "IDQ60801",
        "site_name": "KINGAROY AIRPORT",
        "state": "QLD",
        "wmo": 94549
    },
    "94550": {
        "lat": -28.6617,
        "lon": 151.9339,
        "product": "IDQ60801",
        "site_name": "STANTHORPE LESLIE PARADE",
        "state": "QLD",
        "wmo": 94550
    },
    "94552": {
        "lat": -27.4034,
        "lon": 151.7413,
        "product": "IDQ60801",
        "site_name": "OAKEY AERO",
        "state": "QLD",
        "wmo": 94552
    },
    "94553": {
        "lat": -28.6217,
        "lon": 151.9533,
        "product": "IDQ60801",
        "site_name": "APPLETHORPE",
        "state": "QLD",
        "wmo": 94553
    },
    "94555": {
        "lat": -28.2061,
        "lon": 152.1003,
        "product": "IDQ60801",
        "site_name": "WARWICK",
        "state": "QLD",
        "wmo": 94555
    },
    "94556": {
        "lat": -29.0479,
        "lon": 152.0172,
        "product": "IDN60801",
        "site_name": "TENTERFIELD (FEDERATION PARK)",
        "state": "NSW",
        "wmo": 94556
    },
    "94561": {
        "lat": -27.5433,
        "lon": 153.2394,
        "product": "IDQ60801",
        "site_name": "REDLAND (ALEXANDRA HILLS)",
        "state": "QLD",
        "wmo": 94561
    },
    "94562": {
        "lat": -27.5436,
        "lon": 152.3375,
        "product": "IDQ60801",
        "site_name": "UNIVERSITY OF QUEENSLAND GATTON",
        "state": "QLD",
        "wmo": 94562
    },
    "94564": {
        "lat": -25.9007,
        "lon": 153.0891,
        "product": "IDQ60801",
        "site_name": "RAINBOW BEACH",
        "state": "QLD",
        "wmo": 94564
    },
    "94566": {
        "lat": -26.1831,
        "lon": 152.6414,
        "product": "IDQ60801",
        "site_name": "GYMPIE",
        "state": "QLD",
        "wmo": 94566
    },
    "94567": {
        "lat": -25.5132,
        "lon": 152.7152,
        "product": "IDQ60801",
        "site_name": "MARYBOROUGH",
        "state": "QLD",
        "wmo": 94567
    },
    "94568": {
        "lat": -27.6297,
        "lon": 152.7111,
        "product": "IDQ60801",
        "site_name": "AMBERLEY AMO",
        "state": "QLD",
        "wmo": 94568
    },
    "94569": {
        "lat": -26.599,
        "lon": 153.0912,
        "product": "IDQ60801",
        "site_name": "SUNSHINE COAST AIRPORT",
        "state": "QLD",
        "wmo": 94569
    },
    "94570": {
        "lat": -26.3911,
        "lon": 153.0403,
        "product": "IDQ60801",
        "site_name": "TEWANTIN RSL PARK",
        "state": "QLD",
        "wmo": 94570
    },
    "94572": {
        "lat": -28.8305,
        "lon": 153.2601,
        "product": "IDN60801",
        "site_name": "LISMORE AIRPORT AWS",
        "state": "NSW",
        "wmo": 94572
    },
    "94573": {
        "lat": -28.8824,
        "lon": 153.0618,
        "product": "IDN60801",
        "site_name": "CASINO AIRPORT AWS",
        "state": "NSW",
        "wmo": 94573
    },
    "94575": {
        "lat": -27.5716,
        "lon": 153.0071,
        "product": "IDQ60801",
        "site_name": "ARCHERFIELD AIRPORT",
        "state": "QLD",
        "wmo": 94575
    },
    "94576": {
        "lat": -27.4808,
        "lon": 153.0389,
        "product": "IDQ60801",
        "site_name": "BRISBANE",
        "state": "QLD",
        "wmo": 94576
    },
    "94578": {
        "lat": -27.3917,
        "lon": 153.1292,
        "product": "IDQ60801",
        "site_name": "BRISBANE AERO",
        "state": "QLD",
        "wmo": 94578
    },
    "94580": {
        "lat": -27.939,
        "lon": 153.4283,
        "product": "IDQ60801",
        "site_name": "GOLD COAST SEAWAY",
        "state": "QLD",
        "wmo": 94580
    },
    "94581": {
        "lat": -27.0481,
        "lon": 153.2664,
        "product": "IDQ60801",
        "site_name": "SPITFIRE CHANNEL BEACON",
        "state": "QLD",
        "wmo": 94581
    },
    "94584": {
        "lat": -25.9319,
        "lon": 153.1906,
        "product": "IDQ60801",
        "site_name": "DOUBLE ISLAND POINT LIGHTHOUSE",
        "state": "QLD",
        "wmo": 94584
    },
    "94587": {
        "lat": -28.7551,
        "lon": 152.4507,
        "product": "IDN60801",
        "site_name": "TABULAM (MUIRNE)",
        "state": "NSW",
        "wmo": 94587
    },
    "94588": {
        "lat": -29.678,
        "lon": 151.694,
        "product": "IDN60801",
        "site_name": "GLEN INNES AIRPORT AWS",
        "state": "NSW",
        "wmo": 94588
    },
    "94589": {
        "lat": -29.4325,
        "lon": 153.3632,
        "product": "IDN60801",
        "site_name": "YAMBA PILOT STATION",
        "state": "NSW",
        "wmo": 94589
    },
    "94590": {
        "lat": -27.2637,
        "lon": 153.2417,
        "product": "IDQ60801",
        "site_name": "INNER RECIPROCAL MARKER",
        "state": "QLD",
        "wmo": 94590
    },
    "94591": {
        "lat": -27.5327,
        "lon": 153.3333,
        "product": "IDQ60801",
        "site_name": "BANANA BANK NORTH BEACON",
        "state": "QLD",
        "wmo": 94591
    },
    "94592": {
        "lat": -28.1681,
        "lon": 153.5053,
        "product": "IDQ60801",
        "site_name": "COOLANGATTA",
        "state": "QLD",
        "wmo": 94592
    },
    "94593": {
        "lat": -27.4361,
        "lon": 153.5456,
        "product": "IDQ60801",
        "site_name": "POINT LOOKOUT",
        "state": "QLD",
        "wmo": 94593
    },
    "94594": {
        "lat": -27.0314,
        "lon": 153.4661,
        "product": "IDQ60801",
        "site_name": "CAPE MORETON LIGHTHOUSE",
        "state": "QLD",
        "wmo": 94594
    },
    "94596": {
        "lat": -28.8353,
        "lon": 153.5585,
        "product": "IDN60801",
        "site_name": "BALLINA AIRPORT AWS",
        "state": "NSW",
        "wmo": 94596
    },
    "94598": {
        "lat": -29.183,
        "lon": 153.3964,
        "product": "IDN60801",
        "site_name": "EVANS HEAD RAAF BOMBING RANGE AWS",
        "state": "NSW",
        "wmo": 94598
    },
    "94599": {
        "lat": -28.6399,
        "lon": 153.6358,
        "product": "IDN60801",
        "site_name": "BYRON BAY (CAPE BYRON AWS)",
        "state": "NSW",
        "wmo": 94599
    },
    "94600": {
        "lat": -33.5372,
        "lon": 115.0189,
        "product": "IDW60801",
        "site_name": "CAPE NATURALISTE",
        "state": "WA",
        "wmo": 94600
    },
    "94601": {
        "lat": -34.3728,
        "lon": 115.1358,
        "product": "IDW60801",
        "site_name": "CAPE LEEUWIN",
        "state": "WA",
        "wmo": 94601
    },
    "94602": {
        "lat": -32.0069,
        "lon": 115.5022,
        "product": "IDW60801",
        "site_name": "ROTTNEST ISLAND",
        "state": "WA",
        "wmo": 94602
    },
    "94603": {
        "lat": -30.3381,
        "lon": 115.5394,
        "product": "IDW60801",
        "site_name": "BADGINGARRA RESEARCH STN",
        "state": "WA",
        "wmo": 94603
    },
    "94604": {
        "lat": -33.3567,
        "lon": 115.6447,
        "product": "IDW60801",
        "site_name": "BUNBURY",
        "state": "WA",
        "wmo": 94604
    },
    "94605": {
        "lat": -32.5219,
        "lon": 115.7119,
        "product": "IDW60801",
        "site_name": "MANDURAH",
        "state": "WA",
        "wmo": 94605
    },
    "94607": {
        "lat": -31.7594,
        "lon": 115.7278,
        "product": "IDW60801",
        "site_name": "OCEAN REEF",
        "state": "WA",
        "wmo": 94607
    },
    "94608": {
        "lat": -31.9192,
        "lon": 115.8728,
        "product": "IDW60801",
        "site_name": "PERTH METRO",
        "state": "WA",
        "wmo": 94608
    },
    "94609": {
        "lat": -32.1011,
        "lon": 115.8794,
        "product": "IDW60801",
        "site_name": "JANDAKOT AERO",
        "state": "WA",
        "wmo": 94609
    },
    "94610": {
        "lat": -31.9275,
        "lon": 115.9764,
        "product": "IDW60801",
        "site_name": "PERTH AIRPORT",
        "state": "WA",
        "wmo": 94610
    },
    "94612": {
        "lat": -31.6669,
        "lon": 116.0189,
        "product": "IDW60801",
        "site_name": "PEARCE RAAF",
        "state": "WA",
        "wmo": 94612
    },
    "94614": {
        "lat": -31.9558,
        "lon": 115.7619,
        "product": "IDW60801",
        "site_name": "SWANBOURNE",
        "state": "WA",
        "wmo": 94614
    },
    "94617": {
        "lat": -34.2508,
        "lon": 116.145,
        "product": "IDW60801",
        "site_name": "MANJIMUP",
        "state": "WA",
        "wmo": 94617
    },
    "94620": {
        "lat": -32.7103,
        "lon": 116.0594,
        "product": "IDW60801",
        "site_name": "DWELLINGUP",
        "state": "WA",
        "wmo": 94620
    },
    "94621": {
        "lat": -31.6508,
        "lon": 116.6586,
        "product": "IDW60801",
        "site_name": "NORTHAM",
        "state": "WA",
        "wmo": 94621
    },
    "94622": {
        "lat": -30.8917,
        "lon": 116.7186,
        "product": "IDW60801",
        "site_name": "WONGAN HILLS",
        "state": "WA",
        "wmo": 94622
    },
    "94623": {
        "lat": -31.8997,
        "lon": 116.765,
        "product": "IDW60801",
        "site_name": "YORK",
        "state": "WA",
        "wmo": 94623
    },
    "94625": {
        "lat": -32.3728,
        "lon": 117.0086,
        "product": "IDW60801",
        "site_name": "BROOKTON",
        "state": "WA",
        "wmo": 94625
    },
    "94627": {
        "lat": -32.9342,
        "lon": 117.1797,
        "product": "IDW60801",
        "site_name": "NARROGIN",
        "state": "WA",
        "wmo": 94627
    },
    "94628": {
        "lat": -33.1131,
        "lon": 118.84,
        "product": "IDW60801",
        "site_name": "NEWDEGATE RESEARCH STATION",
        "state": "WA",
        "wmo": 94628
    },
    "94631": {
        "lat": -34.5714,
        "lon": 117.0106,
        "product": "IDW60801",
        "site_name": "ROCKY GULLY",
        "state": "WA",
        "wmo": 94631
    },
    "94632": {
        "lat": -30.8081,
        "lon": 117.8603,
        "product": "IDW60801",
        "site_name": "BENCUBBIN",
        "state": "WA",
        "wmo": 94632
    },
    "94633": {
        "lat": -32.3292,
        "lon": 117.8733,
        "product": "IDW60801",
        "site_name": "CORRIGIN",
        "state": "WA",
        "wmo": 94633
    },
    "94636": {
        "lat": -33.5803,
        "lon": 120.0458,
        "product": "IDW60801",
        "site_name": "RAVENSTHORPE",
        "state": "WA",
        "wmo": 94636
    },
    "94637": {
        "lat": -30.7847,
        "lon": 121.4533,
        "product": "IDW60801",
        "site_name": "KALGOORLIE-BOULDER AIRPORT",
        "state": "WA",
        "wmo": 94637
    },
    "94638": {
        "lat": -33.83,
        "lon": 121.8925,
        "product": "IDW60801",
        "site_name": "ESPERANCE",
        "state": "WA",
        "wmo": 94638
    },
    "94641": {
        "lat": -33.6856,
        "lon": 117.6064,
        "product": "IDW60801",
        "site_name": "KATANNING",
        "state": "WA",
        "wmo": 94641
    },
    "94642": {
        "lat": -32.4569,
        "lon": 123.8653,
        "product": "IDW60801",
        "site_name": "BALLADONIA",
        "state": "WA",
        "wmo": 94642
    },
    "94644": {
        "lat": -32.2028,
        "lon": 127.5297,
        "product": "IDW60801",
        "site_name": "RED ROCKS POINT",
        "state": "WA",
        "wmo": 94644
    },
    "94645": {
        "lat": -32.2464,
        "lon": 126.3008,
        "product": "IDW60801",
        "site_name": "EYRE",
        "state": "WA",
        "wmo": 94645
    },
    "94647": {
        "lat": -31.6797,
        "lon": 128.8958,
        "product": "IDW60801",
        "site_name": "EUCLA",
        "state": "WA",
        "wmo": 94647
    },
    "94650": {
        "lat": -32.7023,
        "lon": 151.4881,
        "product": "IDN60801",
        "site_name": "MAITLAND AIRPORT AWS",
        "state": "NSW",
        "wmo": 94650
    },
    "94686": {
        "lat": -31.0863,
        "lon": 141.7008,
        "product": "IDN60801",
        "site_name": "FOWLERS GAP AWS",
        "state": "NSW",
        "wmo": 94686
    },
    "94691": {
        "lat": -32.0012,
        "lon": 141.4694,
        "product": "IDN60801",
        "site_name": "BROKEN HILL AIRPORT AWS",
        "state": "NSW",
        "wmo": 94691
    },
    "94692": {
        "lat": -34.0438,
        "lon": 141.2676,
        "product": "IDN60801",
        "site_name": "LAKE VICTORIA STORAGE",
        "state": "NSW",
        "wmo": 94692
    },
    "94693": {
        "lat": -34.2358,
        "lon": 142.0867,
        "product": "IDV60801",
        "site_name": "MILDURA AIRPORT",
        "state": "VIC",
        "wmo": 94693
    },
    "94694": {
        "lat": -32.3937,
        "lon": 142.4173,
        "product": "IDN60801",
        "site_name": "MENINDEE POST OFFICE",
        "state": "NSW",
        "wmo": 94694
    },
    "94696": {
        "lat": -34.6398,
        "lon": 143.561,
        "product": "IDN60801",
        "site_name": "BALRANALD (RSL)",
        "state": "NSW",
        "wmo": 94696
    },
    "94700": {
        "lat": -33.4915,
        "lon": 145.5248,
        "product": "IDN60801",
        "site_name": "HILLSTON AIRPORT",
        "state": "NSW",
        "wmo": 94700
    },
    "94702": {
        "lat": -34.5412,
        "lon": 144.8345,
        "product": "IDN60801",
        "site_name": "HAY AIRPORT AWS",
        "state": "NSW",
        "wmo": 94702
    },
    "94703": {
        "lat": -30.0362,
        "lon": 145.9521,
        "product": "IDN60801",
        "site_name": "BOURKE AIRPORT AWS",
        "state": "NSW",
        "wmo": 94703
    },
    "94708": {
        "lat": -31.5495,
        "lon": 147.1961,
        "product": "IDN60801",
        "site_name": "NYNGAN AIRPORT",
        "state": "NSW",
        "wmo": 94708
    },
    "94710": {
        "lat": -31.5388,
        "lon": 145.7964,
        "product": "IDN60801",
        "site_name": "COBAR AIRPORT AWS",
        "state": "NSW",
        "wmo": 94710
    },
    "94711": {
        "lat": -31.484,
        "lon": 145.8294,
        "product": "IDN60801",
        "site_name": "COBAR MO",
        "state": "NSW",
        "wmo": 94711
    },
    "94712": {
        "lat": -34.2493,
        "lon": 148.2475,
        "product": "IDN60801",
        "site_name": "YOUNG AIRPORT",
        "state": "NSW",
        "wmo": 94712
    },
    "94714": {
        "lat": -34.6299,
        "lon": 148.0365,
        "product": "IDN60801",
        "site_name": "COOTAMUNDRA AIRPORT",
        "state": "NSW",
        "wmo": 94714
    },
    "94715": {
        "lat": -33.3627,
        "lon": 147.9205,
        "product": "IDN60801",
        "site_name": "FORBES AIRPORT AWS",
        "state": "NSW",
        "wmo": 94715
    },
    "94716": {
        "lat": -34.7495,
        "lon": 149.7034,
        "product": "IDN60801",
        "site_name": "GOULBURN TAFE",
        "state": "NSW",
        "wmo": 94716
    },
    "94721": {
        "lat": -32.7235,
        "lon": 148.1902,
        "product": "IDN60801",
        "site_name": "PEAK HILL POST OFFICE",
        "state": "NSW",
        "wmo": 94721
    },
    "94723": {
        "lat": -32.5635,
        "lon": 148.9503,
        "product": "IDN60801",
        "site_name": "WELLINGTON (D&J RURAL)",
        "state": "NSW",
        "wmo": 94723
    },
    "94725": {
        "lat": -33.8934,
        "lon": 148.1523,
        "product": "IDN60801",
        "site_name": "GRENFELL (MANGANESE RD)",
        "state": "NSW",
        "wmo": 94725
    },
    "94727": {
        "lat": -32.5628,
        "lon": 149.6149,
        "product": "IDN60801",
        "site_name": "MUDGEE AIRPORT AWS",
        "state": "NSW",
        "wmo": 94727
    },
    "94728": {
        "lat": -31.2786,
        "lon": 149.2786,
        "product": "IDN60801",
        "site_name": "COONABARABRAN (SHOWGROUNDS)",
        "state": "NSW",
        "wmo": 94728
    },
    "94729": {
        "lat": -33.4119,
        "lon": 149.654,
        "product": "IDN60801",
        "site_name": "BATHURST AIRPORT AWS",
        "state": "NSW",
        "wmo": 94729
    },
    "94730": {
        "lat": -33.4289,
        "lon": 149.5559,
        "product": "IDN60801",
        "site_name": "BATHURST AGRICULTURAL STATION",
        "state": "NSW",
        "wmo": 94730
    },
    "94732": {
        "lat": -32.3634,
        "lon": 149.5329,
        "product": "IDN60801",
        "site_name": "GULGONG POST OFFICE",
        "state": "NSW",
        "wmo": 94732
    },
    "94733": {
        "lat": -32.5902,
        "lon": 151.1743,
        "product": "IDN60801",
        "site_name": "SINGLETON STP",
        "state": "NSW",
        "wmo": 94733
    },
    "94741": {
        "lat": -33.4769,
        "lon": 150.1303,
        "product": "IDN60801",
        "site_name": "LITHGOW (COOERWULL)",
        "state": "NSW",
        "wmo": 94741
    },
    "94743": {
        "lat": -33.6185,
        "lon": 150.2741,
        "product": "IDN60801",
        "site_name": "MOUNT BOYCE AWS",
        "state": "NSW",
        "wmo": 94743
    },
    "94746": {
        "lat": -34.5253,
        "lon": 150.4217,
        "product": "IDN60801",
        "site_name": "MOSS VALE AWS",
        "state": "NSW",
        "wmo": 94746
    },
    "94749": {
        "lat": -34.3691,
        "lon": 150.9291,
        "product": "IDN60801",
        "site_name": "BELLAMBI AWS",
        "state": "NSW",
        "wmo": 94749
    },
    "94750": {
        "lat": -34.9469,
        "lon": 150.5353,
        "product": "IDN60801",
        "site_name": "NOWRA RAN AIR STATION AWS",
        "state": "NSW",
        "wmo": 94750
    },
    "94751": {
        "lat": -35.144,
        "lon": 150.6974,
        "product": "IDN60801",
        "site_name": "JERVIS BAY NSW (JERVIS BAY AIRFIELD AWS)",
        "state": "NSW",
        "wmo": 94751
    },
    "94752": {
        "lat": -33.8969,
        "lon": 150.7281,
        "product": "IDN60801",
        "site_name": "BADGERYS CREEK AWS",
        "state": "NSW",
        "wmo": 94752
    },
    "94754": {
        "lat": -32.7244,
        "lon": 150.229,
        "product": "IDN60801",
        "site_name": "NULLO MOUNTAIN AWS",
        "state": "NSW",
        "wmo": 94754
    },
    "94755": {
        "lat": -34.039,
        "lon": 150.689,
        "product": "IDN60801",
        "site_name": "CAMDEN AIRPORT AWS",
        "state": "NSW",
        "wmo": 94755
    },
    "94756": {
        "lat": -31.7678,
        "lon": 150.8418,
        "product": "IDN60801",
        "site_name": "MURRURUNDI (HAYDON STREET)",
        "state": "NSW",
        "wmo": 94756
    },
    "94757": {
        "lat": -34.0615,
        "lon": 150.7735,
        "product": "IDN60801",
        "site_name": "CAMPBELLTOWN (MOUNT ANNAN)",
        "state": "NSW",
        "wmo": 94757
    },
    "94759": {
        "lat": -33.6908,
        "lon": 151.2253,
        "product": "IDN60801",
        "site_name": "TERREY HILLS AWS",
        "state": "NSW",
        "wmo": 94759
    },
    "94760": {
        "lat": -33.851,
        "lon": 150.8567,
        "product": "IDN60801",
        "site_name": "HORSLEY PARK EQUESTRIAN CENTRE AWS",
        "state": "NSW",
        "wmo": 94760
    },
    "94761": {
        "lat": -30.3781,
        "lon": 150.6096,
        "product": "IDN60801",
        "site_name": "BARRABA POST OFFICE",
        "state": "NSW",
        "wmo": 94761
    },
    "94763": {
        "lat": -33.7195,
        "lon": 150.6783,
        "product": "IDN60801",
        "site_name": "PENRITH LAKES AWS",
        "state": "NSW",
        "wmo": 94763
    },
    "94764": {
        "lat": -33.7917,
        "lon": 151.0181,
        "product": "IDN60801",
        "site_name": "PARRAMATTA NORTH (MASONS DRIVE)",
        "state": "NSW",
        "wmo": 94764
    },
    "94765": {
        "lat": -33.9181,
        "lon": 150.9864,
        "product": "IDN60801",
        "site_name": "BANKSTOWN AIRPORT AWS",
        "state": "NSW",
        "wmo": 94765
    },
    "94766": {
        "lat": -33.9057,
        "lon": 151.1134,
        "product": "IDN60801",
        "site_name": "CANTERBURY RACECOURSE AWS",
        "state": "NSW",
        "wmo": 94766
    },
    "94767": {
        "lat": -33.9465,
        "lon": 151.1731,
        "product": "IDN60801",
        "site_name": "SYDNEY AIRPORT AMO",
        "state": "NSW",
        "wmo": 94767
    },
    "94768": {
        "lat": -33.8607,
        "lon": 151.205,
        "product": "IDN60801",
        "site_name": "SYDNEY (OBSERVATORY HILL)",
        "state": "NSW",
        "wmo": 94768
    },
    "94769": {
        "lat": -33.8551,
        "lon": 151.2254,
        "product": "IDN60801",
        "site_name": "FORT DENISON",
        "state": "NSW",
        "wmo": 94769
    },
    "94772": {
        "lat": -30.2122,
        "lon": 151.6794,
        "product": "IDN60801",
        "site_name": "GUYRA HOSPITAL",
        "state": "NSW",
        "wmo": 94772
    },
    "94773": {
        "lat": -30.5243,
        "lon": 151.6716,
        "product": "IDN60801",
        "site_name": "ARMIDALE (TREE GROUP NURSERY)",
        "state": "NSW",
        "wmo": 94773
    },
    "94774": {
        "lat": -32.9184,
        "lon": 151.7985,
        "product": "IDN60801",
        "site_name": "NEWCASTLE NOBBYS SIGNAL STATION AWS",
        "state": "NSW",
        "wmo": 94774
    },
    "94775": {
        "lat": -32.6296,
        "lon": 151.5919,
        "product": "IDN60801",
        "site_name": "PATERSON (TOCAL AWS)",
        "state": "NSW",
        "wmo": 94775
    },
    "94776": {
        "lat": -32.7939,
        "lon": 151.8364,
        "product": "IDN60801",
        "site_name": "WILLIAMTOWN RAAF",
        "state": "NSW",
        "wmo": 94776
    },
    "94780": {
        "lat": -33.9829,
        "lon": 151.2502,
        "product": "IDN60801",
        "site_name": "LITTLE BAY (THE COAST GOLF CLUB)",
        "state": "NSW",
        "wmo": 94780
    },
    "94781": {
        "lat": -32.8906,
        "lon": 151.7068,
        "product": "IDN60801",
        "site_name": "NEWCASTLE UNIVERSITY",
        "state": "NSW",
        "wmo": 94781
    },
    "94782": {
        "lat": -33.4351,
        "lon": 151.3614,
        "product": "IDN60801",
        "site_name": "GOSFORD AWS",
        "state": "NSW",
        "wmo": 94782
    },
    "94783": {
        "lat": -31.3865,
        "lon": 152.2482,
        "product": "IDN60801",
        "site_name": "YARRAS (MOUNT SEAVIEW)",
        "state": "NSW",
        "wmo": 94783
    },
    "94785": {
        "lat": -31.0711,
        "lon": 152.7717,
        "product": "IDN60801",
        "site_name": "KEMPSEY AIRPORT AWS",
        "state": "NSW",
        "wmo": 94785
    },
    "94786": {
        "lat": -31.4335,
        "lon": 152.8655,
        "product": "IDN60801",
        "site_name": "PORT MACQUARIE AIRPORT AWS",
        "state": "NSW",
        "wmo": 94786
    },
    "94789": {
        "lat": -30.3444,
        "lon": 152.7187,
        "product": "IDN60801",
        "site_name": "DORRIGO (OLD CORAMBA RD)",
        "state": "NSW",
        "wmo": 94789
    },
    "94790": {
        "lat": -30.9225,
        "lon": 153.0871,
        "product": "IDN60801",
        "site_name": "SOUTH WEST ROCKS (SMOKY CAPE LIGHTHOUSE)",
        "state": "NSW",
        "wmo": 94790
    },
    "94792": {
        "lat": -30.9672,
        "lon": 151.3451,
        "product": "IDN60801",
        "site_name": "WOOLBROOK (DANGLEMAH ROAD)",
        "state": "NSW",
        "wmo": 94792
    },
    "94793": {
        "lat": -30.2411,
        "lon": 147.5327,
        "product": "IDN60801",
        "site_name": "WALGETT (BREWON AWS)",
        "state": "NSW",
        "wmo": 94793
    },
    "94794": {
        "lat": -31.0824,
        "lon": 146.9296,
        "product": "IDN60801",
        "site_name": "NYNGAN (GIRILAMBONE (OKEH) AWS)",
        "state": "NSW",
        "wmo": 94794
    },
    "94795": {
        "lat": -31.8108,
        "lon": 116.0225,
        "product": "IDW60801",
        "site_name": "MILLENDON (SWAN VALLEY)",
        "state": "WA",
        "wmo": 94795
    },
    "94796": {
        "lat": -30.0692,
        "lon": 141.0067,
        "product": "IDN60801",
        "site_name": "SMITHVILLE AWS",
        "state": "NSW",
        "wmo": 94796
    },
    "94797": {
        "lat": -33.3392,
        "lon": 143.4,
        "product": "IDN60801",
        "site_name": "MULURULU AWS",
        "state": "NSW",
        "wmo": 94797
    },
    "94798": {
        "lat": -31.7267,
        "lon": 144.9313,
        "product": "IDN60801",
        "site_name": "NOONA AWS",
        "state": "NSW",
        "wmo": 94798
    },
    "94801": {
        "lat": -35.0289,
        "lon": 117.8808,
        "product": "IDW60801",
        "site_name": "ALBANY",
        "state": "WA",
        "wmo": 94801
    },
    "94802": {
        "lat": -34.9411,
        "lon": 117.8158,
        "product": "IDW60801",
        "site_name": "ALBANY AIRPORT",
        "state": "WA",
        "wmo": 94802
    },
    "94826": {
        "lat": -38.4306,
        "lon": 141.5437,
        "product": "IDV60801",
        "site_name": "CAPE NELSON LIGHTHOUSE",
        "state": "VIC",
        "wmo": 94826
    },
    "94827": {
        "lat": -36.3092,
        "lon": 141.6486,
        "product": "IDV60801",
        "site_name": "NHILL AERODROME",
        "state": "VIC",
        "wmo": 94827
    },
    "94828": {
        "lat": -38.3148,
        "lon": 141.4705,
        "product": "IDV60801",
        "site_name": "PORTLAND (CASHMORE AIRPORT)",
        "state": "VIC",
        "wmo": 94828
    },
    "94829": {
        "lat": -37.6486,
        "lon": 142.0636,
        "product": "IDV60801",
        "site_name": "HAMILTON AIRPORT",
        "state": "VIC",
        "wmo": 94829
    },
    "94830": {
        "lat": -38.3906,
        "lon": 142.2347,
        "product": "IDV60801",
        "site_name": "PORT FAIRY AWS",
        "state": "VIC",
        "wmo": 94830
    },
    "94831": {
        "lat": -35.0682,
        "lon": 142.3125,
        "product": "IDV60801",
        "site_name": "OUYEN (POST OFFICE)",
        "state": "VIC",
        "wmo": 94831
    },
    "94833": {
        "lat": -37.295,
        "lon": 142.6039,
        "product": "IDV60801",
        "site_name": "GRAMPIANS (MOUNT WILLIAM)",
        "state": "VIC",
        "wmo": 94833
    },
    "94834": {
        "lat": -37.2769,
        "lon": 142.9786,
        "product": "IDV60801",
        "site_name": "ARARAT PRISON",
        "state": "VIC",
        "wmo": 94834
    },
    "94835": {
        "lat": -37.2281,
        "lon": 143.2006,
        "product": "IDV60801",
        "site_name": "PYRENEES (BEN NEVIS)",
        "state": "VIC",
        "wmo": 94835
    },
    "94836": {
        "lat": -37.072,
        "lon": 142.7402,
        "product": "IDV60801",
        "site_name": "STAWELL AERODROME",
        "state": "VIC",
        "wmo": 94836
    },
    "94837": {
        "lat": -38.2867,
        "lon": 142.4522,
        "product": "IDV60801",
        "site_name": "WARRNAMBOOL AIRPORT NDB",
        "state": "VIC",
        "wmo": 94837
    },
    "94838": {
        "lat": -35.7151,
        "lon": 142.3569,
        "product": "IDV60801",
        "site_name": "HOPETOUN AIRPORT",
        "state": "VIC",
        "wmo": 94838
    },
    "94839": {
        "lat": -36.2847,
        "lon": 143.3341,
        "product": "IDV60801",
        "site_name": "CHARLTON",
        "state": "VIC",
        "wmo": 94839
    },
    "94840": {
        "lat": -38.0737,
        "lon": 142.7744,
        "product": "IDV60801",
        "site_name": "MORTLAKE RACECOURSE",
        "state": "VIC",
        "wmo": 94840
    },
    "94841": {
        "lat": -36.2614,
        "lon": 142.405,
        "product": "IDV60801",
        "site_name": "WARRACKNABEAL MUSEUM",
        "state": "VIC",
        "wmo": 94841
    },
    "94842": {
        "lat": -38.8556,
        "lon": 143.5128,
        "product": "IDV60801",
        "site_name": "CAPE OTWAY LIGHTHOUSE",
        "state": "VIC",
        "wmo": 94842
    },
    "94843": {
        "lat": -35.3766,
        "lon": 143.5416,
        "product": "IDV60801",
        "site_name": "SWAN HILL AERODROME",
        "state": "VIC",
        "wmo": 94843
    },
    "94844": {
        "lat": -35.7236,
        "lon": 143.9197,
        "product": "IDV60801",
        "site_name": "KERANG",
        "state": "VIC",
        "wmo": 94844
    },
    "94846": {
        "lat": -38.4583,
        "lon": 144.0883,
        "product": "IDV60801",
        "site_name": "AIREYS INLET",
        "state": "VIC",
        "wmo": 94846
    },
    "94847": {
        "lat": -38.0958,
        "lon": 144.5361,
        "product": "IDV60801",
        "site_name": "POINT WILSON",
        "state": "VIC",
        "wmo": 94847
    },
    "94849": {
        "lat": -37.056,
        "lon": 143.732,
        "product": "IDV60801",
        "site_name": "MARYBOROUGH",
        "state": "VIC",
        "wmo": 94849
    },
    "94850": {
        "lat": -39.8801,
        "lon": 143.8829,
        "product": "IDT60801",
        "site_name": "KING ISLAND AIRPORT",
        "state": "TAS",
        "wmo": 94850
    },
    "94852": {
        "lat": -37.5127,
        "lon": 143.7911,
        "product": "IDV60801",
        "site_name": "BALLARAT AERODROME",
        "state": "VIC",
        "wmo": 94852
    },
    "94853": {
        "lat": -38.3065,
        "lon": 144.8016,
        "product": "IDV60801",
        "site_name": "SOUTH CHANNEL ISLAND",
        "state": "VIC",
        "wmo": 94853
    },
    "94854": {
        "lat": -38.0287,
        "lon": 144.4783,
        "product": "IDV60801",
        "site_name": "AVALON AIRPORT",
        "state": "VIC",
        "wmo": 94854
    },
    "94855": {
        "lat": -36.7411,
        "lon": 144.3275,
        "product": "IDV60801",
        "site_name": "BENDIGO AIRPORT",
        "state": "VIC",
        "wmo": 94855
    },
    "94856": {
        "lat": -37.0177,
        "lon": 144.8546,
        "product": "IDV60801",
        "site_name": "PUCKAPUNYAL WEST (DEFENCE)",
        "state": "VIC",
        "wmo": 94856
    },
    "94857": {
        "lat": -38.1737,
        "lon": 144.3765,
        "product": "IDV60801",
        "site_name": "BREAKWATER (GEELONG RACECOURSE)",
        "state": "VIC",
        "wmo": 94857
    },
    "94858": {
        "lat": -36.9381,
        "lon": 145.0539,
        "product": "IDV60801",
        "site_name": "PUCKAPUNYAL LYON HILL (DEFENCE)",
        "state": "VIC",
        "wmo": 94858
    },
    "94859": {
        "lat": -37.0194,
        "lon": 144.5203,
        "product": "IDV60801",
        "site_name": "REDESDALE",
        "state": "VIC",
        "wmo": 94859
    },
    "94860": {
        "lat": -37.3807,
        "lon": 144.9654,
        "product": "IDV60801",
        "site_name": "WALLAN (KILMORE GAP)",
        "state": "VIC",
        "wmo": 94860
    },
    "94861": {
        "lat": -36.1647,
        "lon": 144.7642,
        "product": "IDV60801",
        "site_name": "ECHUCA AERODROME",
        "state": "VIC",
        "wmo": 94861
    },
    "94862": {
        "lat": -36.0294,
        "lon": 146.0305,
        "product": "IDV60801",
        "site_name": "YARRAWONGA",
        "state": "VIC",
        "wmo": 94862
    },
    "94863": {
        "lat": -37.9075,
        "lon": 144.1303,
        "product": "IDV60801",
        "site_name": "SHEOAKS",
        "state": "VIC",
        "wmo": 94863
    },
    "94864": {
        "lat": -37.7239,
        "lon": 145.4092,
        "product": "IDV60801",
        "site_name": "COLDSTREAM",
        "state": "VIC",
        "wmo": 94864
    },
    "94865": {
        "lat": -37.8565,
        "lon": 144.7566,
        "product": "IDV60801",
        "site_name": "LAVERTON RAAF",
        "state": "VIC",
        "wmo": 94865
    },
    "94866": {
        "lat": -37.6655,
        "lon": 144.8321,
        "product": "IDV60801",
        "site_name": "MELBOURNE AIRPORT",
        "state": "VIC",
        "wmo": 94866
    },
    "94870": {
        "lat": -37.98,
        "lon": 145.0962,
        "product": "IDV60801",
        "site_name": "MOORABBIN AIRPORT",
        "state": "VIC",
        "wmo": 94870
    },
    "94871": {
        "lat": -38.1481,
        "lon": 145.1156,
        "product": "IDV60801",
        "site_name": "FRANKSTON AWS",
        "state": "VIC",
        "wmo": 94871
    },
    "94872": {
        "lat": -37.8748,
        "lon": 145.3496,
        "product": "IDV60801",
        "site_name": "FERNY CREEK",
        "state": "VIC",
        "wmo": 94872
    },
    "94874": {
        "lat": -36.8886,
        "lon": 145.1859,
        "product": "IDV60801",
        "site_name": "MANGALORE AIRPORT",
        "state": "VIC",
        "wmo": 94874
    },
    "94875": {
        "lat": -36.4289,
        "lon": 145.3947,
        "product": "IDV60801",
        "site_name": "SHEPPARTON AIRPORT",
        "state": "VIC",
        "wmo": 94875
    },
    "94878": {
        "lat": -36.2136,
        "lon": 147.5394,
        "product": "IDV60801",
        "site_name": "HUNTERS HILL",
        "state": "VIC",
        "wmo": 94878
    },
    "94879": {
        "lat": -38.1348,
        "lon": 145.2637,
        "product": "IDV60801",
        "site_name": "CRANBOURNE BOTANIC GARDENS",
        "state": "VIC",
        "wmo": 94879
    },
    "94881": {
        "lat": -37.2091,
        "lon": 145.8423,
        "product": "IDV60801",
        "site_name": "EILDON FIRE TOWER",
        "state": "VIC",
        "wmo": 94881
    },
    "94882": {
        "lat": -37.2313,
        "lon": 145.9124,
        "product": "IDV60801",
        "site_name": "LAKE EILDON",
        "state": "VIC",
        "wmo": 94882
    },
    "94884": {
        "lat": -36.5523,
        "lon": 145.9977,
        "product": "IDV60801",
        "site_name": "BENALLA AIRPORT",
        "state": "VIC",
        "wmo": 94884
    },
    "94886": {
        "lat": -38.6297,
        "lon": 145.8107,
        "product": "IDV60801",
        "site_name": "POUND CREEK",
        "state": "VIC",
        "wmo": 94886
    },
    "94888": {
        "lat": -36.5353,
        "lon": 147.4984,
        "product": "IDV60801",
        "site_name": "DARTMOUTH RESERVOIR",
        "state": "VIC",
        "wmo": 94888
    },
    "94889": {
        "lat": -36.4205,
        "lon": 146.3056,
        "product": "IDV60801",
        "site_name": "WANGARATTA AERO",
        "state": "VIC",
        "wmo": 94889
    },
    "94890": {
        "lat": -35.064,
        "lon": 148.0986,
        "product": "IDN60801",
        "site_name": "GUNDAGAI (NANGUS RD)",
        "state": "NSW",
        "wmo": 94890
    },
    "94891": {
        "lat": -38.2094,
        "lon": 146.4746,
        "product": "IDV60801",
        "site_name": "MORWELL (LATROBE VALLEY AIRPORT)",
        "state": "VIC",
        "wmo": 94891
    },
    "94892": {
        "lat": -38.4612,
        "lon": 145.3101,
        "product": "IDV60801",
        "site_name": "RHYLL",
        "state": "VIC",
        "wmo": 94892
    },
    "94893": {
        "lat": -39.1297,
        "lon": 146.4244,
        "product": "IDV60801",
        "site_name": "WILSONS PROMONTORY LIGHTHOUSE",
        "state": "VIC",
        "wmo": 94893
    },
    "94894": {
        "lat": -37.145,
        "lon": 146.4394,
        "product": "IDV60801",
        "site_name": "MOUNT BULLER",
        "state": "VIC",
        "wmo": 94894
    },
    "94898": {
        "lat": -38.3646,
        "lon": 145.1785,
        "product": "IDV60801",
        "site_name": "CERBERUS",
        "state": "VIC",
        "wmo": 94898
    },
    "94901": {
        "lat": -36.1039,
        "lon": 147.0329,
        "product": "IDN60801",
        "site_name": "HUME RESERVOIR",
        "state": "NSW",
        "wmo": 94901
    },
    "94903": {
        "lat": -36.8708,
        "lon": 147.2755,
        "product": "IDV60801",
        "site_name": "FALLS CREEK",
        "state": "VIC",
        "wmo": 94903
    },
    "94906": {
        "lat": -36.9772,
        "lon": 147.1342,
        "product": "IDV60801",
        "site_name": "MOUNT HOTHAM",
        "state": "VIC",
        "wmo": 94906
    },
    "94908": {
        "lat": -37.1017,
        "lon": 147.6008,
        "product": "IDV60801",
        "site_name": "OMEO",
        "state": "VIC",
        "wmo": 94908
    },
    "94910": {
        "lat": -35.1583,
        "lon": 147.4575,
        "product": "IDN60801",
        "site_name": "WAGGA WAGGA AMO",
        "state": "NSW",
        "wmo": 94910
    },
    "94911": {
        "lat": -38.8051,
        "lon": 146.1936,
        "product": "IDV60801",
        "site_name": "CORNER INLET (YANAKIE)",
        "state": "VIC",
        "wmo": 94911
    },
    "94912": {
        "lat": -37.8818,
        "lon": 147.5669,
        "product": "IDV60801",
        "site_name": "BAIRNSDALE AIRPORT",
        "state": "VIC",
        "wmo": 94912
    },
    "94913": {
        "lat": -37.22,
        "lon": 148.2626,
        "product": "IDV60801",
        "site_name": "GELANTIPY",
        "state": "VIC",
        "wmo": 94913
    },
    "94914": {
        "lat": -37.3416,
        "lon": 149.0227,
        "product": "IDV60801",
        "site_name": "COMBIENBAR AWS",
        "state": "VIC",
        "wmo": 94914
    },
    "94915": {
        "lat": -36.4069,
        "lon": 148.4055,
        "product": "IDN60801",
        "site_name": "PERISHER VALLEY AWS",
        "state": "NSW",
        "wmo": 94915
    },
    "94918": {
        "lat": -35.778,
        "lon": 148.0122,
        "product": "IDN60801",
        "site_name": "TUMBARUMBA POST OFFICE",
        "state": "NSW",
        "wmo": 94918
    },
    "94919": {
        "lat": -36.2304,
        "lon": 148.1405,
        "product": "IDN60801",
        "site_name": "KHANCOBAN AWS",
        "state": "NSW",
        "wmo": 94919
    },
    "94920": {
        "lat": -36.3204,
        "lon": 142.4161,
        "product": "IDV60801",
        "site_name": "KELLALAC (WARRACKNABEAL AIRPORT)",
        "state": "VIC",
        "wmo": 94920
    },
    "94921": {
        "lat": -36.2939,
        "lon": 148.9725,
        "product": "IDN60801",
        "site_name": "COOMA AIRPORT AWS",
        "state": "NSW",
        "wmo": 94921
    },
    "94923": {
        "lat": -36.2318,
        "lon": 149.1243,
        "product": "IDN60801",
        "site_name": "COOMA VISITORS CENTRE",
        "state": "NSW",
        "wmo": 94923
    },
    "94925": {
        "lat": -35.4184,
        "lon": 149.0937,
        "product": "IDN60801",
        "site_name": "TUGGERANONG (ISABELLA PLAINS) AWS",
        "state": "NSW",
        "wmo": 94925
    },
    "94926": {
        "lat": -35.3088,
        "lon": 149.2004,
        "product": "IDN60801",
        "site_name": "CANBERRA AIRPORT",
        "state": "NSW",
        "wmo": 94926
    },
    "94927": {
        "lat": -35.4253,
        "lon": 149.7835,
        "product": "IDN60801",
        "site_name": "BRAIDWOOD RACECOURSE AWS",
        "state": "NSW",
        "wmo": 94927
    },
    "94928": {
        "lat": -36.9113,
        "lon": 149.2379,
        "product": "IDN60801",
        "site_name": "BOMBALA (THERRY STREET)",
        "state": "NSW",
        "wmo": 94928
    },
    "94929": {
        "lat": -37.0016,
        "lon": 149.2336,
        "product": "IDN60801",
        "site_name": "BOMBALA AWS",
        "state": "NSW",
        "wmo": 94929
    },
    "94930": {
        "lat": -37.6924,
        "lon": 148.0908,
        "product": "IDV60801",
        "site_name": "MOUNT NOWA NOWA",
        "state": "VIC",
        "wmo": 94930
    },
    "94932": {
        "lat": -37.8017,
        "lon": 149.2747,
        "product": "IDV60801",
        "site_name": "POINT HICKS (LIGHTHOUSE)",
        "state": "VIC",
        "wmo": 94932
    },
    "94933": {
        "lat": -37.5679,
        "lon": 149.9158,
        "product": "IDV60801",
        "site_name": "GABO ISLAND LIGHTHOUSE",
        "state": "VIC",
        "wmo": 94933
    },
    "94934": {
        "lat": -37.2622,
        "lon": 150.0504,
        "product": "IDN60801",
        "site_name": "GREEN CAPE AWS",
        "state": "NSW",
        "wmo": 94934
    },
    "94935": {
        "lat": -37.5976,
        "lon": 149.7289,
        "product": "IDV60801",
        "site_name": "MALLACOOTA",
        "state": "VIC",
        "wmo": 94935
    },
    "94937": {
        "lat": -35.9093,
        "lon": 150.1532,
        "product": "IDN60801",
        "site_name": "MORUYA HEADS PILOT STATION",
        "state": "NSW",
        "wmo": 94937
    },
    "94938": {
        "lat": -35.3635,
        "lon": 150.4828,
        "product": "IDN60801",
        "site_name": "ULLADULLA AWS",
        "state": "NSW",
        "wmo": 94938
    },
    "94939": {
        "lat": -36.2519,
        "lon": 150.2275,
        "product": "IDN60801",
        "site_name": "MONTAGUE ISLAND LIGHTHOUSE",
        "state": "NSW",
        "wmo": 94939
    },
    "94941": {
        "lat": -35.7234,
        "lon": 150.1872,
        "product": "IDN60801",
        "site_name": "BATEMANS BAY (CATALINA COUNTRY CLUB)",
        "state": "NSW",
        "wmo": 94941
    },
    "94943": {
        "lat": -35.1103,
        "lon": 150.0826,
        "product": "IDN60801",
        "site_name": "NERRIGA AWS",
        "state": "NSW",
        "wmo": 94943
    },
    "94944": {
        "lat": -35.1327,
        "lon": 147.2513,
        "product": "IDN60801",
        "site_name": "KAPOOKA (DEFENCE)",
        "state": "NSW",
        "wmo": 94944
    },
    "94949": {
        "lat": -39.2225,
        "lon": 146.9841,
        "product": "IDV60801",
        "site_name": "HOGAN ISLAND",
        "state": "TAS",
        "wmo": 94949
    },
    "94950": {
        "lat": -40.9089,
        "lon": 144.7094,
        "product": "IDT60801",
        "site_name": "MARRAWAH",
        "state": "TAS",
        "wmo": 94950
    },
    "94951": {
        "lat": -42.9017,
        "lon": 147.7894,
        "product": "IDT60801",
        "site_name": "DUNALLEY (STROUD POINT)",
        "state": "TAS",
        "wmo": 94951
    },
    "94953": {
        "lat": -40.8347,
        "lon": 145.0847,
        "product": "IDT60801",
        "site_name": "SMITHTON AERODROME",
        "state": "TAS",
        "wmo": 94953
    },
    "94955": {
        "lat": -41.3886,
        "lon": 146.3219,
        "product": "IDT60801",
        "site_name": "SHEFFIELD SCHOOL FARM",
        "state": "TAS",
        "wmo": 94955
    },
    "94956": {
        "lat": -42.155,
        "lon": 145.2908,
        "product": "IDT60801",
        "site_name": "STRAHAN AERODROME",
        "state": "TAS",
        "wmo": 94956
    },
    "94957": {
        "lat": -42.4842,
        "lon": 146.7106,
        "product": "IDT60801",
        "site_name": "OUSE FIRE STATION",
        "state": "TAS",
        "wmo": 94957
    },
    "94959": {
        "lat": -42.2753,
        "lon": 146.2758,
        "product": "IDT60801",
        "site_name": "BUTLERS GORGE",
        "state": "TAS",
        "wmo": 94959
    },
    "94960": {
        "lat": -42.4543,
        "lon": 147.4612,
        "product": "IDT60801",
        "site_name": "TUNNACK FIRE STATION",
        "state": "TAS",
        "wmo": 94960
    },
    "94961": {
        "lat": -43.333,
        "lon": 146.998,
        "product": "IDT60801",
        "site_name": "DOVER",
        "state": "TAS",
        "wmo": 94961
    },
    "94962": {
        "lat": -43.6578,
        "lon": 146.2711,
        "product": "IDT60801",
        "site_name": "MAATSUYKER ISLAND LIGHTHOUSE",
        "state": "TAS",
        "wmo": 94962
    },
    "94963": {
        "lat": -42.7567,
        "lon": 146.6239,
        "product": "IDT60801",
        "site_name": "MAYDENA POST OFFICE",
        "state": "TAS",
        "wmo": 94963
    },
    "94964": {
        "lat": -42.7097,
        "lon": 146.8983,
        "product": "IDT60801",
        "site_name": "BUSHY PARK (BUSHY PARK ESTATES)",
        "state": "TAS",
        "wmo": 94964
    },
    "94967": {
        "lat": -43.4892,
        "lon": 147.1453,
        "product": "IDT60801",
        "site_name": "CAPE BRUNY LIGHTHOUSE",
        "state": "TAS",
        "wmo": 94967
    },
    "94969": {
        "lat": -41.4194,
        "lon": 147.1219,
        "product": "IDT60801",
        "site_name": "LAUNCESTON (TI TREE BEND)",
        "state": "TAS",
        "wmo": 94969
    },
    "94970": {
        "lat": -42.8897,
        "lon": 147.3278,
        "product": "IDT60801",
        "site_name": "HOBART (ELLERSLIE ROAD)",
        "state": "TAS",
        "wmo": 94970
    },
    "94971": {
        "lat": -42.4928,
        "lon": 147.1981,
        "product": "IDT60801",
        "site_name": "MELTON MOWBRAY (NORTH STOCKMAN)",
        "state": "TAS",
        "wmo": 94971
    },
    "94972": {
        "lat": -41.1708,
        "lon": 147.4883,
        "product": "IDT60801",
        "site_name": "SCOTTSDALE (WEST MINSTONE ROAD)",
        "state": "TAS",
        "wmo": 94972
    },
    "94974": {
        "lat": -42.1986,
        "lon": 145.17,
        "product": "IDT60801",
        "site_name": "CAPE SORELL",
        "state": "TAS",
        "wmo": 94974
    },
    "94975": {
        "lat": -42.8339,
        "lon": 147.5033,
        "product": "IDT60801",
        "site_name": "HOBART AIRPORT",
        "state": "TAS",
        "wmo": 94975
    },
    "94976": {
        "lat": -42.1178,
        "lon": 146.1772,
        "product": "IDT60801",
        "site_name": "LAKE ST CLAIR NATIONAL PARK",
        "state": "TAS",
        "wmo": 94976
    },
    "94977": {
        "lat": -43.2006,
        "lon": 146.7683,
        "product": "IDT60801",
        "site_name": "HARTZ MOUNTAIN (KEOGHS PIMPLE)",
        "state": "TAS",
        "wmo": 94977
    },
    "94979": {
        "lat": -42.0067,
        "lon": 147.7975,
        "product": "IDT60801",
        "site_name": "LAKE LEAKE (ELIZABETH RIVER)",
        "state": "TAS",
        "wmo": 94979
    },
    "94980": {
        "lat": -40.0911,
        "lon": 148.0024,
        "product": "IDT60801",
        "site_name": "FLINDERS ISLAND AIRPORT",
        "state": "TAS",
        "wmo": 94980
    },
    "94981": {
        "lat": -42.1381,
        "lon": 148.0736,
        "product": "IDT60801",
        "site_name": "SWANSEA (FRANCIS STREET)",
        "state": "TAS",
        "wmo": 94981
    },
    "94983": {
        "lat": -40.9928,
        "lon": 148.3467,
        "product": "IDT60801",
        "site_name": "LARAPUNA (EDDYSTONE POINT)",
        "state": "TAS",
        "wmo": 94983
    },
    "94985": {
        "lat": -42.025,
        "lon": 147.4953,
        "product": "IDT60801",
        "site_name": "ROSS (THE BOULEVARDS)",
        "state": "TAS",
        "wmo": 94985
    },
    "94987": {
        "lat": -41.9953,
        "lon": 148.2794,
        "product": "IDT60801",
        "site_name": "FRIENDLY BEACHES",
        "state": "TAS",
        "wmo": 94987
    },
    "94988": {
        "lat": -43.0639,
        "lon": 147.3567,
        "product": "IDT60801",
        "site_name": "DENNES POINT",
        "state": "TAS",
        "wmo": 94988
    },
    "94995": {
        "lat": -31.5421,
        "lon": 159.0786,
        "product": "IDN60801",
        "site_name": "LORD HOWE ISLAND AERO",
        "state": "NSW",
        "wmo": 94995
    },
    "94996": {
        "lat": -29.0389,
        "lon": 167.9408,
        "product": "IDN60801",
        "site_name": "NORFOLK ISLAND AERO",
        "state": "NSW",
        "wmo": 94996
    },
    "94998": {
        "lat": -54.4994,
        "lon": 158.9369,
        "product": "IDT60801",
        "site_name": "MACQUARIE ISLAND",
        "state": "ANT",
        "wmo": 94998
    },
    "95101": {
        "lat": -14.09,
        "lon": 126.3867,
        "product": "IDW60801",
        "site_name": "TRUSCOTT",
        "state": "WA",
        "wmo": 95101
    },
    "95111": {
        "lat": -14.2494,
        "lon": 129.5282,
        "product": "IDD60801",
        "site_name": "PORT KEATS AIRPORT",
        "state": "NT",
        "wmo": 95111
    },
    "95121": {
        "lat": -12.605,
        "lon": 131.2988,
        "product": "IDD60801",
        "site_name": "MIDDLE POINT",
        "state": "NT",
        "wmo": 95121
    },
    "95122": {
        "lat": -12.4719,
        "lon": 130.8458,
        "product": "IDD60801",
        "site_name": "DARWIN NTC AWS",
        "state": "NT",
        "wmo": 95122
    },
    "95142": {
        "lat": -12.0569,
        "lon": 134.2339,
        "product": "IDD60801",
        "site_name": "MANINGRIDA AIRPORT",
        "state": "NT",
        "wmo": 95142
    },
    "95146": {
        "lat": -11.9971,
        "lon": 135.5726,
        "product": "IDD60801",
        "site_name": "NGAYAWILI",
        "state": "NT",
        "wmo": 95146
    },
    "95202": {
        "lat": -18.0008,
        "lon": 122.2183,
        "product": "IDW60801",
        "site_name": "BROOME NTC AWS",
        "state": "WA",
        "wmo": 95202
    },
    "95205": {
        "lat": -17.3706,
        "lon": 123.6611,
        "product": "IDW60801",
        "site_name": "DERBY AERO",
        "state": "WA",
        "wmo": 95205
    },
    "95208": {
        "lat": -16.7671,
        "lon": 123.981,
        "product": "IDW60801",
        "site_name": "YAMPI SOUND (DEFENCE)",
        "state": "WA",
        "wmo": 95208
    },
    "95214": {
        "lat": -15.51,
        "lon": 128.1503,
        "product": "IDW60801",
        "site_name": "WYNDHAM AERO",
        "state": "WA",
        "wmo": 95214
    },
    "95283": {
        "lat": -15.4461,
        "lon": 145.1861,
        "product": "IDQ60801",
        "site_name": "COOKTOWN AIRPORT",
        "state": "QLD",
        "wmo": 95283
    },
    "95286": {
        "lat": -17.0704,
        "lon": 145.4293,
        "product": "IDQ60801",
        "site_name": "MAREEBA AIRPORT",
        "state": "QLD",
        "wmo": 95286
    },
    "95288": {
        "lat": -15.4877,
        "lon": 147.1183,
        "product": "IDQ60801",
        "site_name": "BOUGAINVILLE REEF",
        "state": "QLD",
        "wmo": 95288
    },
    "95291": {
        "lat": -18.6494,
        "lon": 146.1769,
        "product": "IDQ60801",
        "site_name": "INGHAM COMPOSITE",
        "state": "QLD",
        "wmo": 95291
    },
    "95292": {
        "lat": -17.6053,
        "lon": 145.9972,
        "product": "IDQ60801",
        "site_name": "SOUTH JOHNSTONE EXP STN",
        "state": "QLD",
        "wmo": 95292
    },
    "95293": {
        "lat": -19.4168,
        "lon": 146.5362,
        "product": "IDQ60801",
        "site_name": "WOOLSHED",
        "state": "QLD",
        "wmo": 95293
    },
    "95295": {
        "lat": -19.6169,
        "lon": 147.3758,
        "product": "IDQ60801",
        "site_name": "AYR DPI RESEARCH STN",
        "state": "QLD",
        "wmo": 95295
    },
    "95296": {
        "lat": -19.4569,
        "lon": 147.4833,
        "product": "IDQ60801",
        "site_name": "ALVA BEACH",
        "state": "QLD",
        "wmo": 95296
    },
    "95298": {
        "lat": -23.161,
        "lon": 150.7901,
        "product": "IDQ60801",
        "site_name": "ROSSLYN BAY NTC AWS",
        "state": "QLD",
        "wmo": 95298
    },
    "95304": {
        "lat": -20.874,
        "lon": 115.4066,
        "product": "IDW60801",
        "site_name": "BARROW ISLAND AIRPORT",
        "state": "WA",
        "wmo": 95304
    },
    "95305": {
        "lat": -21.6689,
        "lon": 115.1092,
        "product": "IDW60801",
        "site_name": "ONSLOW AIRPORT",
        "state": "WA",
        "wmo": 95305
    },
    "95307": {
        "lat": -20.7097,
        "lon": 116.7742,
        "product": "IDW60801",
        "site_name": "KARRATHA AERO",
        "state": "WA",
        "wmo": 95307
    },
    "95317": {
        "lat": -21.1756,
        "lon": 119.7497,
        "product": "IDW60801",
        "site_name": "MARBLE BAR",
        "state": "WA",
        "wmo": 95317
    },
    "95322": {
        "lat": -20.1823,
        "lon": 130.0148,
        "product": "IDD60801",
        "site_name": "RABBIT FLAT",
        "state": "NT",
        "wmo": 95322
    },
    "95323": {
        "lat": -23.4564,
        "lon": 134.6849,
        "product": "IDD60801",
        "site_name": "ARLTUNGA",
        "state": "NT",
        "wmo": 95323
    },
    "95351": {
        "lat": -24.4303,
        "lon": 145.4306,
        "product": "IDQ60801",
        "site_name": "BLACKALL AIRPORT",
        "state": "QLD",
        "wmo": 95351
    },
    "95362": {
        "lat": -24.123,
        "lon": 148.0856,
        "product": "IDQ60801",
        "site_name": "SPRINGSURE COMET ST",
        "state": "QLD",
        "wmo": 95362
    },
    "95367": {
        "lat": -21.1706,
        "lon": 149.1794,
        "product": "IDQ60801",
        "site_name": "MACKAY AERO",
        "state": "QLD",
        "wmo": 95367
    },
    "95369": {
        "lat": -22.3472,
        "lon": 149.5242,
        "product": "IDQ60801",
        "site_name": "ST LAWRENCE",
        "state": "QLD",
        "wmo": 95369
    },
    "95370": {
        "lat": -22.4703,
        "lon": 150.1786,
        "product": "IDQ60801",
        "site_name": "WILLIAMSON",
        "state": "QLD",
        "wmo": 95370
    },
    "95402": {
        "lat": -25.8925,
        "lon": 113.5772,
        "product": "IDW60801",
        "site_name": "SHARK BAY AIRPORT",
        "state": "WA",
        "wmo": 95402
    },
    "95439": {
        "lat": -26.6274,
        "lon": 120.2194,
        "product": "IDW60801",
        "site_name": "WILUNA AERO",
        "state": "WA",
        "wmo": 95439
    },
    "95448": {
        "lat": -27.8386,
        "lon": 120.7031,
        "product": "IDW60801",
        "site_name": "LEINSTER AERO",
        "state": "WA",
        "wmo": 95448
    },
    "95482": {
        "lat": -25.8975,
        "lon": 139.3472,
        "product": "IDQ60801",
        "site_name": "BIRDSVILLE AIRPORT",
        "state": "QLD",
        "wmo": 95482
    },
    "95485": {
        "lat": -29.4448,
        "lon": 142.0567,
        "product": "IDN60801",
        "site_name": "TIBOOBURRA AIRPORT",
        "state": "NSW",
        "wmo": 95485
    },
    "95487": {
        "lat": -27.4008,
        "lon": 141.8114,
        "product": "IDQ60801",
        "site_name": "BALLERA GAS FIELD",
        "state": "QLD",
        "wmo": 95487
    },
    "95512": {
        "lat": -29.9614,
        "lon": 146.8651,
        "product": "IDN60801",
        "site_name": "BREWARRINA HOSPITAL",
        "state": "NSW",
        "wmo": 95512
    },
    "95520": {
        "lat": -29.5406,
        "lon": 148.5817,
        "product": "IDN60801",
        "site_name": "COLLARENEBRI (ALBERT ST)",
        "state": "NSW",
        "wmo": 95520
    },
    "95527": {
        "lat": -29.4898,
        "lon": 149.8471,
        "product": "IDN60801",
        "site_name": "MOREE AERO",
        "state": "NSW",
        "wmo": 95527
    },
    "95529": {
        "lat": -26.6569,
        "lon": 150.1819,
        "product": "IDQ60801",
        "site_name": "MILES CONSTANCE STREET",
        "state": "QLD",
        "wmo": 95529
    },
    "95533": {
        "lat": -28.8544,
        "lon": 151.1681,
        "product": "IDQ60801",
        "site_name": "TEXAS POST OFFICE",
        "state": "QLD",
        "wmo": 95533
    },
    "95541": {
        "lat": -29.7796,
        "lon": 151.1121,
        "product": "IDN60801",
        "site_name": "INVERELL (RAGLAN ST)",
        "state": "NSW",
        "wmo": 95541
    },
    "95543": {
        "lat": -25.6167,
        "lon": 151.6156,
        "product": "IDQ60801",
        "site_name": "GAYNDAH AIRPORT",
        "state": "QLD",
        "wmo": 95543
    },
    "95551": {
        "lat": -27.5425,
        "lon": 151.9134,
        "product": "IDQ60801",
        "site_name": "TOOWOOMBA AIRPORT",
        "state": "QLD",
        "wmo": 95551
    },
    "95565": {
        "lat": -25.322,
        "lon": 152.8817,
        "product": "IDQ60801",
        "site_name": "HERVEY BAY AIRPORT",
        "state": "QLD",
        "wmo": 95565
    },
    "95566": {
        "lat": -26.9586,
        "lon": 152.9619,
        "product": "IDQ60801",
        "site_name": "BEERBURRUM FOREST STATION",
        "state": "QLD",
        "wmo": 95566
    },
    "95570": {
        "lat": -29.7583,
        "lon": 153.0297,
        "product": "IDN60801",
        "site_name": "GRAFTON AIRPORT AWS",
        "state": "NSW",
        "wmo": 95570
    },
    "95571": {
        "lat": -29.6224,
        "lon": 152.9605,
        "product": "IDN60801",
        "site_name": "GRAFTON RESEARCH STN",
        "state": "NSW",
        "wmo": 95571
    },
    "95572": {
        "lat": -26.6442,
        "lon": 152.9383,
        "product": "IDQ60801",
        "site_name": "NAMBOUR DAFF - HILLSIDE",
        "state": "QLD",
        "wmo": 95572
    },
    "95575": {
        "lat": -27.9707,
        "lon": 152.9898,
        "product": "IDQ60801",
        "site_name": "BEAUDESERT DRUMLEY STREET",
        "state": "QLD",
        "wmo": 95575
    },
    "95581": {
        "lat": -27.6839,
        "lon": 153.1947,
        "product": "IDQ60801",
        "site_name": "LOGAN CITY WATER TREATMENT PLANT",
        "state": "QLD",
        "wmo": 95581
    },
    "95591": {
        "lat": -27.2169,
        "lon": 153.0922,
        "product": "IDQ60801",
        "site_name": "REDCLIFFE",
        "state": "QLD",
        "wmo": 95591
    },
    "95600": {
        "lat": -30.3081,
        "lon": 115.0311,
        "product": "IDW60801",
        "site_name": "JURIEN BAY",
        "state": "WA",
        "wmo": 95600
    },
    "95602": {
        "lat": -33.6294,
        "lon": 115.3383,
        "product": "IDW60801",
        "site_name": "BUSSELTON JETTY",
        "state": "WA",
        "wmo": 95602
    },
    "95603": {
        "lat": -31.6183,
        "lon": 117.7217,
        "product": "IDW60801",
        "site_name": "KELLERBERRIN",
        "state": "WA",
        "wmo": 95603
    },
    "95605": {
        "lat": -31.8256,
        "lon": 115.7386,
        "product": "IDW60801",
        "site_name": "HILLARYS BOAT HARBOUR NTC AWS",
        "state": "WA",
        "wmo": 95605
    },
    "95606": {
        "lat": -31.016,
        "lon": 115.3322,
        "product": "IDW60801",
        "site_name": "LANCELIN",
        "state": "WA",
        "wmo": 95606
    },
    "95607": {
        "lat": -32.2433,
        "lon": 115.6839,
        "product": "IDW60801",
        "site_name": "GARDEN ISLAND HSF",
        "state": "WA",
        "wmo": 95607
    },
    "95609": {
        "lat": -30.8392,
        "lon": 115.2284,
        "product": "IDW60801",
        "site_name": "LANCELIN (DEFENCE)",
        "state": "WA",
        "wmo": 95609
    },
    "95610": {
        "lat": -32.0072,
        "lon": 116.1369,
        "product": "IDW60801",
        "site_name": "BICKLEY",
        "state": "WA",
        "wmo": 95610
    },
    "95611": {
        "lat": -33.6818,
        "lon": 115.4026,
        "product": "IDW60801",
        "site_name": "BUSSELTON AERO",
        "state": "WA",
        "wmo": 95611
    },
    "95612": {
        "lat": -31.4628,
        "lon": 115.8642,
        "product": "IDW60801",
        "site_name": "GINGIN AERO",
        "state": "WA",
        "wmo": 95612
    },
    "95613": {
        "lat": -34.4478,
        "lon": 116.0433,
        "product": "IDW60801",
        "site_name": "PEMBERTON",
        "state": "WA",
        "wmo": 95613
    },
    "95614": {
        "lat": -32.4389,
        "lon": 116.0789,
        "product": "IDW60801",
        "site_name": "KARNET",
        "state": "WA",
        "wmo": 95614
    },
    "95615": {
        "lat": -32.1083,
        "lon": 116.9247,
        "product": "IDW60801",
        "site_name": "BEVERLEY",
        "state": "WA",
        "wmo": 95615
    },
    "95617": {
        "lat": -34.5683,
        "lon": 116.3367,
        "product": "IDW60801",
        "site_name": "SHANNON",
        "state": "WA",
        "wmo": 95617
    },
    "95618": {
        "lat": -33.3075,
        "lon": 117.3403,
        "product": "IDW60801",
        "site_name": "WAGIN",
        "state": "WA",
        "wmo": 95618
    },
    "95620": {
        "lat": -31.9889,
        "lon": 115.8311,
        "product": "IDW60801",
        "site_name": "INNER DOLPHIN PYLON",
        "state": "WA",
        "wmo": 95620
    },
    "95621": {
        "lat": -33.3608,
        "lon": 116.1717,
        "product": "IDW60801",
        "site_name": "COLLIE EAST",
        "state": "WA",
        "wmo": 95621
    },
    "95622": {
        "lat": -33.5719,
        "lon": 115.8247,
        "product": "IDW60801",
        "site_name": "DONNYBROOK",
        "state": "WA",
        "wmo": 95622
    },
    "95623": {
        "lat": -33.7964,
        "lon": 115.6658,
        "product": "IDW60801",
        "site_name": "JARRAHWOOD",
        "state": "WA",
        "wmo": 95623
    },
    "95624": {
        "lat": -31.4756,
        "lon": 118.2789,
        "product": "IDW60801",
        "site_name": "MERREDIN",
        "state": "WA",
        "wmo": 95624
    },